$GPRMC,201349.768,A,4651.053,N,07113.990,W,053.8,246.4,210718,000.0,W*6F
$GPGGA,201350.768,4651.045,N,07114.009,W,1,12,1.0,0.0,M,0.0,M,,*7D
$GPGSA,A,3,01,02,03,04,05,06,07,08,09,10,11,12,1.0,1.0,1.0*30
$GPRMC,201350.768,A,4651.045,N,07114.009,W,053.8,246.4,210718,000.0,W*6E
$GPGGA,201351.768,4651.037,N,07114.027,W,1,12,1.0,0.0,M,0.0,M,,*75
$GPGSA,A,3,01,02,03,04,05,06,07,08,09,10,11,12,1.0,1.0,1.0*30
$GPRMC,201351.768,A,4651.037,N,07114.027,W,053.8,246.4,210718,000.0,W*66
$GPGGA,201352.768,4651.029,N,07114.046,W,1,12,1.0,0.0,M,0.0,M,,*7E
$GPGSA,A,3,01,02,03,04,05,06,07,08,09,10,11,12,1.0,1.0,1.0*30
$GPRMC,201352.768,A,4651.029,N,07114.046,W,053.8,246.4,210718,000.0,W*6D
$GPGGA,201353.768,4651.021,N,07114.064,W,1,12,1.0,0.0,M,0.0,M,,*77
$GPGSA,A,3,01,02,03,04,05,06,07,08,09,10,11,12,1.0,1.0,1.0*30
$GPRMC,201353.768,A,4651.021,N,07114.064,W,053.8,246.4,210718,000.0,W*64
$GPGGA,201354.768,4651.013,N,07114.082,W,1,12,1.0,0.0,M,0.0,M,,*79
$GPGSA,A,3,01,02,03,04,05,06,07,08,09,10,11,12,1.0,1.0,1.0*30
$GPRMC,201354.768,A,4651.013,N,07114.082,W,053.8,246.4,210718,000.0,W*6A
$GPGGA,201355.768,4651.005,N,07114.101,W,1,12,1.0,0.0,M,0.0,M,,*75
$GPGSA,A,3,01,02,03,04,05,06,07,08,09,10,11,12,1.0,1.0,1.0*30
$GPRMC,201355.768,A,4651.005,N,07114.101,W,053.8,246.4,210718,000.0,W*66
$GPGGA,201356.768,4650.997,N,07114.119,W,1,12,1.0,0.0,M,0.0,M,,*7C
$GPGSA,A,3,01,02,03,04,05,06,07,08,09,10,11,12,1.0,1.0,1.0*30
$GPRMC,201356.768,A,4650.997,N,07114.119,W,053.8,246.4,210718,000.0,W*6F
$GPGGA,201357.768,4650.989,N,07114.138,W,1,12,1.0,0.0,M,0.0,M,,*71
$GPGSA,A,3,01,02,03,04,05,06,07,08,09,10,11,12,1.0,1.0,1.0*30
$GPRMC,201357.768,A,4650.989,N,07114.138,W,053.8,246.4,210718,000.0,W*62
$GPGGA,201358.768,4650.981,N,07114.156,W,1,12,1.0,0.0,M,0.0,M,,*7E
$GPGSA,A,3,01,02,03,04,05,06,07,08,09,10,11,12,1.0,1.0,1.0*30
$GPRMC,201358.768,A,4650.981,N,07114.156,W,053.8,246.4,210718,000.0,W*6D
$GPGGA,201359.768,4650.973,N,07114.175,W,1,12,1.0,0.0,M,0.0,M,,*73
$GPGSA,A,3,01,02,03,04,05,06,07,08,09,10,11,12,1.0,1.0,1.0*30
$GPRMC,201359.768,A,4650.973,N,07114.175,W,053.8,246.4,210718,000.0,W*60
$GPGGA,201400.768,4650.965,N,07114.193,W,1,12,1.0,0.0,M,0.0,M,,*77
$GPGSA,A,3,01,02,03,04,05,06,07,08,09,10,11,12,1.0,1.0,1.0*30
$GPRMC,201400.768,A,4650.965,N,07114.193,W,053.8,246.4,210718,000.0,W*64
$GPGGA,201401.768,4650.957,N,07114.211,W,1,12,1.0,0.0,M,0.0,M,,*7E
$GPGSA,A,3,01,02,03,04,05,06,07,08,09,10,11,12,1.0,1.0,1.0*30
$GPRMC,201401.768,A,4650.957,N,07114.211,W,053.8,246.4,210718,000.0,W*6D
$GPGGA,201402.768,4650.949,N,07114.230,W,1,12,1.0,0.0,M,0.0,M,,*71
$GPGSA,A,3,01,02,03,04,05,06,07,08,09,10,11,12,1.0,1.0,1.0*30
$GPRMC,201402.768,A,4650.949,N,07114.230,W,053.8,246.4,210718,000.0,W*62
$GPGGA,201403.768,4650.941,N,07114.248,W,1,12,1.0,0.0,M,0.0,M,,*77
$GPGSA,A,3,01,02,03,04,05,06,07,08,09,10,11,12,1.0,1.0,1.0*30
$GPRMC,201403.768,A,4650.941,N,07114.248,W,053.8,246.4,210718,000.0,W*64
$GPGGA,201404.768,4650.933,N,07114.267,W,1,12,1.0,0.0,M,0.0,M,,*78
$GPGSA,A,3,01,02,03,04,05,06,07,08,09,10,11,12,1.0,1.0,1.0*30
$GPRMC,201404.768,A,4650.933,N,07114.267,W,053.8,246.4,210718,000.0,W*6B
$GPGGA,201405.768,4650.925,N,07114.285,W,1,12,1.0,0.0,M,0.0,M,,*72
$GPGSA,A,3,01,02,03,04,05,06,07,08,09,10,11,12,1.0,1.0,1.0*30
$GPRMC,201405.768,A,4650.925,N,07114.285,W,053.8,246.4,210718,000.0,W*61
$GPGGA,201406.768,4650.917,N,07114.304,W,1,12,1.0,0.0,M,0.0,M,,*78
$GPGSA,A,3,01,02,03,04,05,06,07,08,09,10,11,12,1.0,1.0,1.0*30
$GPRMC,201406.768,A,4650.917,N,07114.304,W,053.8,246.4,210718,000.0,W*6B
$GPGGA,201407.768,4650.909,N,07114.322,W,1,12,1.0,0.0,M,0.0,M,,*72
$GPGSA,A,3,01,02,03,04,05,06,07,08,09,10,11,12,1.0,1.0,1.0*30
$GPRMC,201407.768,A,4650.909,N,07114.322,W,053.8,246.4,210718,000.0,W*61
$GPGGA,201408.768,4650.901,N,07114.341,W,1,12,1.0,0.0,M,0.0,M,,*70
$GPGSA,A,3,01,02,03,04,05,06,07,08,09,10,11,12,1.0,1.0,1.0*30
$GPRMC,201408.768,A,4650.901,N,07114.341,W,053.8,246.4,210718,000.0,W*63
$GPGGA,201409.768,4650.893,N,07114.359,W,1,12,1.0,0.0,M,0.0,M,,*72
$GPGSA,A,3,01,02,03,04,05,06,07,08,09,10,11,12,1.0,1.0,1.0*30
$GPRMC,201409.768,A,4650.893,N,07114.359,W,053.8,246.4,210718,000.0,W*61
$GPGGA,201410.768,4650.885,N,07114.377,W,1,12,1.0,0.0,M,0.0,M,,*71
$GPGSA,A,3,01,02,03,04,05,06,07,08,09,10,11,12,1.0,1.0,1.0*30
$GPRMC,201410.768,A,4650.885,N,07114.377,W,053.8,246.4,210718,000.0,W*62
$GPGGA,201411.768,4650.877,N,07114.396,W,1,12,1.0,0.0,M,0.0,M,,*72
$GPGSA,A,3,01,02,03,04,05,06,07,08,09,10,11,12,1.0,1.0,1.0*30
$GPRMC,201411.768,A,4650.877,N,07114.396,W,053.8,246.4,210718,000.0,W*61
$GPGGA,201412.768,4650.869,N,07114.414,W,1,12,1.0,0.0,M,0.0,M,,*73
$GPGSA,A,3,01,02,03,04,05,06,07,08,09,10,11,12,1.0,1.0,1.0*30
$GPRMC,201412.768,A,4650.869,N,07114.414,W,053.8,246.4,210718,000.0,W*60
$GPGGA,201413.768,4650.861,N,07114.433,W,1,12,1.0,0.0,M,0.0,M,,*7F
$GPGSA,A,3,01,02,03,04,05,06,07,08,09,10,11,12,1.0,1.0,1.0*30
$GPRMC,201413.768,A,4650.861,N,07114.433,W,053.8,246.4,210718,000.0,W*6C
$GPGGA,201414.768,4650.853,N,07114.451,W,1,12,1.0,0.0,M,0.0,M,,*7D
$GPGSA,A,3,01,02,03,04,05,06,07,08,09,10,11,12,1.0,1.0,1.0*30
$GPRMC,201414.768,A,4650.853,N,07114.451,W,053.8,246.4,210718,000.0,W*6E
$GPGGA,201415.768,4650.845,N,07114.470,W,1,12,1.0,0.0,M,0.0,M,,*78
$GPGSA,A,3,01,02,03,04,05,06,07,08,09,10,11,12,1.0,1.0,1.0*30
$GPRMC,201415.768,A,4650.845,N,07114.470,W,053.8,246.4,210718,000.0,W*6B
$GPGGA,201416.768,4650.837,N,07114.488,W,1,12,1.0,0.0,M,0.0,M,,*79
$GPGSA,A,3,01,02,03,04,05,06,07,08,09,10,11,12,1.0,1.0,1.0*30
$GPRMC,201416.768,A,4650.837,N,07114.488,W,053.8,246.4,210718,000.0,W*6A
$GPGGA,201417.768,4650.829,N,07114.506,W,1,12,1.0,0.0,M,0.0,M,,*70
$GPGSA,A,3,01,02,03,04,05,06,07,08,09,10,11,12,1.0,1.0,1.0*30
$GPRMC,201417.768,A,4650.829,N,07114.506,W,053.8,246.4,210718,000.0,W*63
$GPGGA,201418.768,4650.821,N,07114.525,W,1,12,1.0,0.0,M,0.0,M,,*76
$GPGSA,A,3,01,02,03,04,05,06,07,08,09,10,11,12,1.0,1.0,1.0*30
$GPRMC,201418.768,A,4650.821,N,07114.525,W,053.8,246.4,210718,000.0,W*65
$GPGGA,201419.768,4650.813,N,07114.543,W,1,12,1.0,0.0,M,0.0,M,,*76
$GPGSA,A,3,01,02,03,04,05,06,07,08,09,10,11,12,1.0,1.0,1.0*30
$GPRMC,201419.768,A,4650.813,N,07114.543,W,053.8,246.4,210718,000.0,W*65
$GPGGA,201420.768,4650.805,N,07114.562,W,1,12,1.0,0.0,M,0.0,M,,*78
$GPGSA,A,3,01,02,03,04,05,06,07,08,09,10,11,12,1.0,1.0,1.0*30
$GPRMC,201420.768,A,4650.805,N,07114.562,W,053.8,246.4,210718,000.0,W*6B
$GPGGA,201421.768,4650.797,N,07114.580,W,1,12,1.0,0.0,M,0.0,M,,*71
$GPGSA,A,3,01,02,03,04,05,06,07,08,09,10,11,12,1.0,1.0,1.0*30
$GPRMC,201421.768,A,4650.797,N,07114.580,W,053.8,246.4,210718,000.0,W*62
$GPGGA,201422.768,4650.789,N,07114.599,W,1,12,1.0,0.0,M,0.0,M,,*75
$GPGSA,A,3,01,02,03,04,05,06,07,08,09,10,11,12,1.0,1.0,1.0*30
$GPRMC,201422.768,A,4650.789,N,07114.599,W,053.8,246.4,210718,000.0,W*66
$GPGGA,201423.768,4650.780,N,07114.617,W,1,12,1.0,0.0,M,0.0,M,,*78
$GPGSA,A,3,01,02,03,04,05,06,07,08,09,10,11,12,1.0,1.0,1.0*30
$GPRMC,201423.768,A,4650.780,N,07114.617,W,053.8,246.4,210718,000.0,W*6B
$GPGGA,201424.768,4650.772,N,07114.635,W,1,12,1.0,0.0,M,0.0,M,,*72
$GPGSA,A,3,01,02,03,04,05,06,07,08,09,10,11,12,1.0,1.0,1.0*30
$GPRMC,201424.768,A,4650.772,N,07114.635,W,053.8,246.4,210718,000.0,W*61
$GPGGA,201425.768,4650.764,N,07114.654,W,1,12,1.0,0.0,M,0.0,M,,*73
$GPGSA,A,3,01,02,03,04,05,06,07,08,09,10,11,12,1.0,1.0,1.0*30
$GPRMC,201425.768,A,4650.764,N,07114.654,W,053.8,246.4,210718,000.0,W*60
$GPGGA,201426.768,4650.756,N,07114.672,W,1,12,1.0,0.0,M,0.0,M,,*75
$GPGSA,A,3,01,02,03,04,05,06,07,08,09,10,11,12,1.0,1.0,1.0*30
$GPRMC,201426.768,A,4650.756,N,07114.672,W,053.8,246.4,210718,000.0,W*66
$GPGGA,201427.768,4650.748,N,07114.691,W,1,12,1.0,0.0,M,0.0,M,,*76
$GPGSA,A,3,01,02,03,04,05,06,07,08,09,10,11,12,1.0,1.0,1.0*30
$GPRMC,201427.768,A,4650.748,N,07114.691,W,053.8,246.4,210718,000.0,W*65
$GPGGA,201428.768,4650.740,N,07114.709,W,1,12,1.0,0.0,M,0.0,M,,*71
$GPGSA,A,3,01,02,03,04,05,06,07,08,09,10,11,12,1.0,1.0,1.0*30
$GPRMC,201428.768,A,4650.740,N,07114.709,W,053.8,246.4,210718,000.0,W*62
$GPGGA,201429.768,4650.732,N,07114.728,W,1,12,1.0,0.0,M,0.0,M,,*76
$GPGSA,A,3,01,02,03,04,05,06,07,08,09,10,11,12,1.0,1.0,1.0*30
$GPRMC,201429.768,A,4650.732,N,07114.728,W,053.8,246.4,210718,000.0,W*65
$GPGGA,201430.768,4650.724,N,07114.746,W,1,12,1.0,0.0,M,0.0,M,,*71
$GPGSA,A,3,01,02,03,04,05,06,07,08,09,10,11,12,1.0,1.0,1.0*30
$GPRMC,201430.768,A,4650.724,N,07114.746,W,053.8,246.4,210718,000.0,W*62
$GPGGA,201431.768,4650.716,N,07114.764,W,1,12,1.0,0.0,M,0.0,M,,*71
$GPGSA,A,3,01,02,03,04,05,06,07,08,09,10,11,12,1.0,1.0,1.0*30
$GPRMC,201431.768,A,4650.716,N,07114.764,W,053.8,246.4,210718,000.0,W*62
$GPGGA,201432.768,4650.708,N,07114.783,W,1,12,1.0,0.0,M,0.0,M,,*74
$GPGSA,A,3,01,02,03,04,05,06,07,08,09,10,11,12,1.0,1.0,1.0*30
$GPRMC,201432.768,A,4650.708,N,07114.783,W,053.8,246.4,210718,000.0,W*67
$GPGGA,201433.768,4650.700,N,07114.801,W,1,12,1.0,0.0,M,0.0,M,,*78
$GPGSA,A,3,01,02,03,04,05,06,07,08,09,10,11,12,1.0,1.0,1.0*30
$GPRMC,201433.768,A,4650.700,N,07114.801,W,053.8,246.4,210718,000.0,W*6B
$GPGGA,201434.768,4650.692,N,07114.820,W,1,12,1.0,0.0,M,0.0,M,,*76
$GPGSA,A,3,01,02,03,04,05,06,07,08,09,10,11,12,1.0,1.0,1.0*30
$GPRMC,201434.768,A,4650.692,N,07114.820,W,053.8,246.4,210718,000.0,W*65
$GPGGA,201435.768,4650.684,N,07114.838,W,1,12,1.0,0.0,M,0.0,M,,*79
$GPGSA,A,3,01,02,03,04,05,06,07,08,09,10,11,12,1.0,1.0,1.0*30
$GPRMC,201435.768,A,4650.684,N,07114.838,W,053.8,246.4,210718,000.0,W*6A
$GPGGA,201436.768,4650.676,N,07114.857,W,1,12,1.0,0.0,M,0.0,M,,*7E
$GPGSA,A,3,01,02,03,04,05,06,07,08,09,10,11,12,1.0,1.0,1.0*30
$GPRMC,201436.768,A,4650.676,N,07114.857,W,053.8,246.4,210718,000.0,W*6D
$GPGGA,201437.768,4650.668,N,07114.875,W,1,12,1.0,0.0,M,0.0,M,,*70
$GPGSA,A,3,01,02,03,04,05,06,07,08,09,10,11,12,1.0,1.0,1.0*30
$GPRMC,201437.768,A,4650.668,N,07114.875,W,053.8,246.4,210718,000.0,W*63
$GPGGA,201438.768,4650.660,N,07114.893,W,1,12,1.0,0.0,M,0.0,M,,*7F
$GPGSA,A,3,01,02,03,04,05,06,07,08,09,10,11,12,1.0,1.0,1.0*30
$GPRMC,201438.768,A,4650.660,N,07114.893,W,053.8,246.4,210718,000.0,W*6C
$GPGGA,201439.768,4650.652,N,07114.912,W,1,12,1.0,0.0,M,0.0,M,,*77
$GPGSA,A,3,01,02,03,04,05,06,07,08,09,10,11,12,1.0,1.0,1.0*30
$GPRMC,201439.768,A,4650.652,N,07114.912,W,053.8,246.4,210718,000.0,W*64
$GPGGA,201440.768,4650.644,N,07114.930,W,1,12,1.0,0.0,M,0.0,M,,*7E
$GPGSA,A,3,01,02,03,04,05,06,07,08,09,10,11,12,1.0,1.0,1.0*30
$GPRMC,201440.768,A,4650.644,N,07114.930,W,053.8,246.4,210718,000.0,W*6D
$GPGGA,201441.768,4650.636,N,07114.949,W,1,12,1.0,0.0,M,0.0,M,,*74
$GPGSA,A,3,01,02,03,04,05,06,07,08,09,10,11,12,1.0,1.0,1.0*30
$GPRMC,201441.768,A,4650.636,N,07114.949,W,053.8,246.4,210718,000.0,W*67
$GPGGA,201442.768,4650.628,N,07114.967,W,1,12,1.0,0.0,M,0.0,M,,*74
$GPGSA,A,3,01,02,03,04,05,06,07,08,09,10,11,12,1.0,1.0,1.0*30
$GPRMC,201442.768,A,4650.628,N,07114.967,W,053.8,246.4,210718,000.0,W*67
$GPGGA,201443.768,4650.620,N,07114.986,W,1,12,1.0,0.0,M,0.0,M,,*72
$GPGSA,A,3,01,02,03,04,05,06,07,08,09,10,11,12,1.0,1.0,1.0*30
$GPRMC,201443.768,A,4650.620,N,07114.986,W,053.8,246.4,210718,000.0,W*61
$GPGGA,201444.768,4650.612,N,07115.004,W,1,12,1.0,0.0,M,0.0,M,,*76
$GPGSA,A,3,01,02,03,04,05,06,07,08,09,10,11,12,1.0,1.0,1.0*30
$GPRMC,201444.768,A,4650.612,N,07115.004,W,053.8,246.4,210718,000.0,W*65
$GPGGA,201445.768,4650.604,N,07115.022,W,1,12,1.0,0.0,M,0.0,M,,*74
$GPGSA,A,3,01,02,03,04,05,06,07,08,09,10,11,12,1.0,1.0,1.0*30
$GPRMC,201445.768,A,4650.604,N,07115.022,W,053.8,246.4,210718,000.0,W*67
$GPGGA,201446.768,4650.596,N,07115.041,W,1,12,1.0,0.0,M,0.0,M,,*7A
$GPGSA,A,3,01,02,03,04,05,06,07,08,09,10,11,12,1.0,1.0,1.0*30
$GPRMC,201446.768,A,4650.596,N,07115.041,W,053.8,246.4,210718,000.0,W*69
$GPGGA,201447.768,4650.588,N,07115.059,W,1,12,1.0,0.0,M,0.0,M,,*7D
$GPGSA,A,3,01,02,03,04,05,06,07,08,09,10,11,12,1.0,1.0,1.0*30
$GPRMC,201447.768,A,4650.588,N,07115.059,W,053.8,246.4,210718,000.0,W*6E
$GPGGA,201448.768,4650.580,N,07115.078,W,1,12,1.0,0.0,M,0.0,M,,*79
$GPGSA,A,3,01,02,03,04,05,06,07,08,09,10,11,12,1.0,1.0,1.0*30
$GPRMC,201448.768,A,4650.580,N,07115.078,W,053.8,246.4,210718,000.0,W*6A
$GPGGA,201449.768,4650.572,N,07115.096,W,1,12,1.0,0.0,M,0.0,M,,*75
$GPGSA,A,3,01,02,03,04,05,06,07,08,09,10,11,12,1.0,1.0,1.0*30
$GPRMC,201449.768,A,4650.572,N,07115.096,W,053.8,246.4,210718,000.0,W*66
$GPGGA,201450.768,4650.564,N,07115.115,W,1,12,1.0,0.0,M,0.0,M,,*70
$GPGSA,A,3,01,02,03,04,05,06,07,08,09,10,11,12,1.0,1.0,1.0*30
$GPRMC,201450.768,A,4650.564,N,07115.115,W,053.8,246.4,210718,000.0,W*63
$GPGGA,201451.768,4650.556,N,07115.133,W,1,12,1.0,0.0,M,0.0,M,,*74
$GPGSA,A,3,01,02,03,04,05,06,07,08,09,10,11,12,1.0,1.0,1.0*30
$GPRMC,201451.768,A,4650.556,N,07115.133,W,053.8,246.4,210718,000.0,W*67
$GPGGA,201452.768,4650.548,N,07115.152,W,1,12,1.0,0.0,M,0.0,M,,*7F
$GPGSA,A,3,01,02,03,04,05,06,07,08,09,10,11,12,1.0,1.0,1.0*30
$GPRMC,201452.768,A,4650.548,N,07115.152,W,053.8,246.4,210718,000.0,W*6C
$GPGGA,201453.768,4650.540,N,07115.170,W,1,12,1.0,0.0,M,0.0,M,,*76
$GPGSA,A,3,01,02,03,04,05,06,07,08,09,10,11,12,1.0,1.0,1.0*30
$GPRMC,201453.768,A,4650.540,N,07115.170,W,053.8,246.4,210718,000.0,W*65
$GPGGA,201454.768,4650.532,N,07115.188,W,1,12,1.0,0.0,M,0.0,M,,*73
$GPGSA,A,3,01,02,03,04,05,06,07,08,09,10,11,12,1.0,1.0,1.0*30
$GPRMC,201454.768,A,4650.532,N,07115.188,W,053.8,246.4,210718,000.0,W*60
$GPGGA,201455.768,4650.524,N,07115.207,W,1,12,1.0,0.0,M,0.0,M,,*71
$GPGSA,A,3,01,02,03,04,05,06,07,08,09,10,11,12,1.0,1.0,1.0*30
$GPRMC,201455.768,A,4650.524,N,07115.207,W,053.8,246.4,210718,000.0,W*62
$GPGGA,201456.768,4650.516,N,07115.225,W,1,12,1.0,0.0,M,0.0,M,,*73
$GPGSA,A,3,01,02,03,04,05,06,07,08,09,10,11,12,1.0,1.0,1.0*30
$GPRMC,201456.768,A,4650.516,N,07115.225,W,053.8,246.4,210718,000.0,W*60
$GPGGA,201457.768,4650.508,N,07115.244,W,1,12,1.0,0.0,M,0.0,M,,*7A
$GPGSA,A,3,01,02,03,04,05,06,07,08,09,10,11,12,1.0,1.0,1.0*30
$GPRMC,201457.768,A,4650.508,N,07115.244,W,053.8,246.4,210718,000.0,W*69
$GPGGA,201458.768,4650.500,N,07115.262,W,1,12,1.0,0.0,M,0.0,M,,*79
$GPGSA,A,3,01,02,03,04,05,06,07,08,09,10,11,12,1.0,1.0,1.0*30
$GPRMC,201458.768,A,4650.500,N,07115.262,W,053.8,246.4,210718,000.0,W*6A
$GPGGA,201459.768,4650.491,N,07115.281,W,1,12,1.0,0.0,M,0.0,M,,*7C
$GPGSA,A,3,01,02,03,04,05,06,07,08,09,10,11,12,1.0,1.0,1.0*30
$GPRMC,201459.768,A,4650.491,N,07115.281,W,053.8,246.4,210718,000.0,W*6F
$GPGGA,201500.768,4650.483,N,07115.299,W,1,12,1.0,0.0,M,0.0,M,,*7B
$GPGSA,A,3,01,02,03,04,05,06,07,08,09,10,11,12,1.0,1.0,1.0*30
$GPRMC,201500.768,A,4650.483,N,07115.299,W,053.8,246.4,210718,000.0,W*68
$GPGGA,201501.768,4650.475,N,07115.317,W,1,12,1.0,0.0,M,0.0,M,,*74
$GPGSA,A,3,01,02,03,04,05,06,07,08,09,10,11,12,1.0,1.0,1.0*30
$GPRMC,201501.768,A,4650.475,N,07115.317,W,053.8,246.4,210718,000.0,W*67
$GPGGA,201502.768,4650.467,N,07115.336,W,1,12,1.0,0.0,M,0.0,M,,*77
$GPGSA,A,3,01,02,03,04,05,06,07,08,09,10,11,12,1.0,1.0,1.0*30
$GPRMC,201502.768,A,4650.467,N,07115.336,W,053.8,246.4,210718,000.0,W*64
$GPGGA,201503.768,4650.459,N,07115.354,W,1,12,1.0,0.0,M,0.0,M,,*7F
$GPGSA,A,3,01,02,03,04,05,06,07,08,09,10,11,12,1.0,1.0,1.0*30
$GPRMC,201503.768,A,4650.459,N,07115.354,W,053.8,246.4,210718,000.0,W*6C
$GPGGA,201504.768,4650.451,N,07115.373,W,1,12,1.0,0.0,M,0.0,M,,*75
$GPGSA,A,3,01,02,03,04,05,06,07,08,09,10,11,12,1.0,1.0,1.0*30
$GPRMC,201504.768,A,4650.451,N,07115.373,W,053.8,246.4,210718,000.0,W*66
$GPGGA,201505.768,4650.443,N,07115.391,W,1,12,1.0,0.0,M,0.0,M,,*7B
$GPGSA,A,3,01,02,03,04,05,06,07,08,09,10,11,12,1.0,1.0,1.0*30
$GPRMC,201505.768,A,4650.443,N,07115.391,W,053.8,246.4,210718,000.0,W*68
$GPGGA,201506.768,4650.435,N,07115.410,W,1,12,1.0,0.0,M,0.0,M,,*77
$GPGSA,A,3,01,02,03,04,05,06,07,08,09,10,11,12,1.0,1.0,1.0*30
$GPRMC,201506.768,A,4650.435,N,07115.410,W,053.8,246.4,210718,000.0,W*64
$GPGGA,201507.768,4650.427,N,07115.428,W,1,12,1.0,0.0,M,0.0,M,,*7E
$GPGSA,A,3,01,02,03,04,05,06,07,08,09,10,11,12,1.0,1.0,1.0*30
$GPRMC,201507.768,A,4650.427,N,07115.428,W,053.8,246.4,210718,000.0,W*6D
$GPGGA,201508.768,4650.419,N,07115.446,W,1,12,1.0,0.0,M,0.0,M,,*74
$GPGSA,A,3,01,02,03,04,05,06,07,08,09,10,11,12,1.0,1.0,1.0*30
$GPRMC,201508.768,A,4650.419,N,07115.446,W,053.8,246.4,210718,000.0,W*67
$GPGGA,201509.768,4650.411,N,07115.465,W,1,12,1.0,0.0,M,0.0,M,,*7C
$GPGSA,A,3,01,02,03,04,05,06,07,08,09,10,11,12,1.0,1.0,1.0*30
$GPRMC,201509.768,A,4650.411,N,07115.465,W,053.8,246.4,210718,000.0,W*6F
$GPGGA,201510.768,4650.403,N,07115.483,W,1,12,1.0,0.0,M,0.0,M,,*7F
$GPGSA,A,3,01,02,03,04,05,06,07,08,09,10,11,12,1.0,1.0,1.0*30
$GPRMC,201510.768,A,4650.403,N,07115.483,W,053.8,246.4,210718,000.0,W*6C
$GPGGA,201511.768,4650.395,N,07115.502,W,1,12,1.0,0.0,M,0.0,M,,*7E
$GPGSA,A,3,01,02,03,04,05,06,07,08,09,10,11,12,1.0,1.0,1.0*30
$GPRMC,201511.768,A,4650.395,N,07115.502,W,053.8,246.4,210718,000.0,W*6D
$GPGGA,201512.768,4650.387,N,07115.520,W,1,12,1.0,0.0,M,0.0,M,,*7E
$GPGSA,A,3,01,02,03,04,05,06,07,08,09,10,11,12,1.0,1.0,1.0*30
$GPRMC,201512.768,A,4650.387,N,07115.520,W,053.8,246.4,210718,000.0,W*6D
$GPGGA,201513.768,4650.379,N,07115.539,W,1,12,1.0,0.0,M,0.0,M,,*76
$GPGSA,A,3,01,02,03,04,05,06,07,08,09,10,11,12,1.0,1.0,1.0*30
$GPRMC,201513.768,A,4650.379,N,07115.539,W,053.8,246.4,210718,000.0,W*65
$GPGGA,201514.768,4650.371,N,07115.557,W,1,12,1.0,0.0,M,0.0,M,,*71
$GPGSA,A,3,01,02,03,04,05,06,07,08,09,10,11,12,1.0,1.0,1.0*30
$GPRMC,201514.768,A,4650.371,N,07115.557,W,053.8,246.4,210718,000.0,W*62
$GPGGA,201515.768,4650.363,N,07115.575,W,1,12,1.0,0.0,M,0.0,M,,*73
$GPGSA,A,3,01,02,03,04,05,06,07,08,09,10,11,12,1.0,1.0,1.0*30
$GPRMC,201515.768,A,4650.363,N,07115.575,W,053.8,246.4,210718,000.0,W*60
$GPGGA,201516.768,4650.355,N,07115.594,W,1,12,1.0,0.0,M,0.0,M,,*7A
$GPGSA,A,3,01,02,03,04,05,06,07,08,09,10,11,12,1.0,1.0,1.0*30
$GPRMC,201516.768,A,4650.355,N,07115.594,W,053.8,246.4,210718,000.0,W*69
$GPGGA,201517.768,4650.347,N,07115.612,W,1,12,1.0,0.0,M,0.0,M,,*75
$GPGSA,A,3,01,02,03,04,05,06,07,08,09,10,11,12,1.0,1.0,1.0*30
$GPRMC,201517.768,A,4650.347,N,07115.612,W,053.8,246.4,210718,000.0,W*66
$GPGGA,201518.768,4650.339,N,07115.631,W,1,12,1.0,0.0,M,0.0,M,,*72
$GPGSA,A,3,01,02,03,04,05,06,07,08,09,10,11,12,1.0,1.0,1.0*30
$GPRMC,201518.768,A,4650.339,N,07115.631,W,053.8,246.4,210718,000.0,W*61
$GPGGA,201519.768,4650.331,N,07115.649,W,1,12,1.0,0.0,M,0.0,M,,*74
$GPGSA,A,3,01,02,03,04,05,06,07,08,09,10,11,12,1.0,1.0,1.0*30
$GPRMC,201519.768,A,4650.331,N,07115.649,W,053.8,246.4,210718,000.0,W*67
$GPGGA,201520.768,4650.323,N,07115.668,W,1,12,1.0,0.0,M,0.0,M,,*7E
$GPGSA,A,3,01,02,03,04,05,06,07,08,09,10,11,12,1.0,1.0,1.0*30
$GPRMC,201520.768,A,4650.323,N,07115.668,W,053.8,246.4,210718,000.0,W*6D
$GPGGA,201521.768,4650.315,N,07115.686,W,1,12,1.0,0.0,M,0.0,M,,*7A
$GPGSA,A,3,01,02,03,04,05,06,07,08,09,10,11,12,1.0,1.0,1.0*30
$GPRMC,201521.768,A,4650.315,N,07115.686,W,053.8,246.4,210718,000.0,W*69
$GPGGA,201522.768,4650.307,N,07115.704,W,1,12,1.0,0.0,M,0.0,M,,*71
$GPGSA,A,3,01,02,03,04,05,06,07,08,09,10,11,12,1.0,1.0,1.0*30
$GPRMC,201522.768,A,4650.307,N,07115.704,W,053.8,246.4,210718,000.0,W*62
$GPGGA,201523.768,4650.299,N,07115.723,W,1,12,1.0,0.0,M,0.0,M,,*73
$GPGSA,A,3,01,02,03,04,05,06,07,08,09,10,11,12,1.0,1.0,1.0*30
$GPRMC,201523.768,A,4650.299,N,07115.723,W,053.8,246.4,210718,000.0,W*60
$GPGGA,201524.768,4650.291,N,07115.741,W,1,12,1.0,0.0,M,0.0,M,,*78
$GPGSA,A,3,01,02,03,04,05,06,07,08,09,10,11,12,1.0,1.0,1.0*30
$GPRMC,201524.768,A,4650.291,N,07115.741,W,053.8,246.4,210718,000.0,W*6B
$GPGGA,201525.768,4650.283,N,07115.760,W,1,12,1.0,0.0,M,0.0,M,,*79
$GPGSA,A,3,01,02,03,04,05,06,07,08,09,10,11,12,1.0,1.0,1.0*30
$GPRMC,201525.768,A,4650.283,N,07115.760,W,053.8,246.4,210718,000.0,W*6A
$GPGGA,201526.768,4650.275,N,07115.778,W,1,12,1.0,0.0,M,0.0,M,,*7A
$GPGSA,A,3,01,02,03,04,05,06,07,08,09,10,11,12,1.0,1.0,1.0*30
$GPRMC,201526.768,A,4650.275,N,07115.778,W,053.8,246.4,210718,000.0,W*69
$GPGGA,201527.768,4650.267,N,07115.797,W,1,12,1.0,0.0,M,0.0,M,,*79
$GPGSA,A,3,01,02,03,04,05,06,07,08,09,10,11,12,1.0,1.0,1.0*30
$GPRMC,201527.768,A,4650.267,N,07115.797,W,053.8,246.4,210718,000.0,W*6A
$GPGGA,201528.768,4650.259,N,07115.815,W,1,12,1.0,0.0,M,0.0,M,,*7E
$GPGSA,A,3,01,02,03,04,05,06,07,08,09,10,11,12,1.0,1.0,1.0*30
$GPRMC,201528.768,A,4650.259,N,07115.815,W,053.8,246.4,210718,000.0,W*6D
$GPGGA,201529.768,4650.251,N,07115.833,W,1,12,1.0,0.0,M,0.0,M,,*73
$GPGSA,A,3,01,02,03,04,05,06,07,08,09,10,11,12,1.0,1.0,1.0*30
$GPRMC,201529.768,A,4650.251,N,07115.833,W,053.8,246.4,210718,000.0,W*60
$GPGGA,201530.768,4650.243,N,07115.852,W,1,12,1.0,0.0,M,0.0,M,,*7F
$GPGSA,A,3,01,02,03,04,05,06,07,08,09,10,11,12,1.0,1.0,1.0*30
$GPRMC,201530.768,A,4650.243,N,07115.852,W,053.8,246.4,210718,000.0,W*6C
$GPGGA,201531.768,4650.235,N,07115.870,W,1,12,1.0,0.0,M,0.0,M,,*7F
$GPGSA,A,3,01,02,03,04,05,06,07,08,09,10,11,12,1.0,1.0,1.0*30
$GPRMC,201531.768,A,4650.235,N,07115.870,W,053.8,246.4,210718,000.0,W*6C
$GPGGA,201532.768,4650.227,N,07115.889,W,1,12,1.0,0.0,M,0.0,M,,*79
$GPGSA,A,3,01,02,03,04,05,06,07,08,09,10,11,12,1.0,1.0,1.0*30
$GPRMC,201532.768,A,4650.227,N,07115.889,W,053.8,246.4,210718,000.0,W*6A
$GPGGA,201533.768,4650.219,N,07115.907,W,1,12,1.0,0.0,M,0.0,M,,*72
$GPGSA,A,3,01,02,03,04,05,06,07,08,09,10,11,12,1.0,1.0,1.0*30
$GPRMC,201533.768,A,4650.219,N,07115.907,W,053.8,246.4,210718,000.0,W*61
$GPGGA,201534.768,4650.211,N,07115.926,W,1,12,1.0,0.0,M,0.0,M,,*7E
$GPGSA,A,3,01,02,03,04,05,06,07,08,09,10,11,12,1.0,1.0,1.0*30
$GPRMC,201534.768,A,4650.211,N,07115.926,W,053.8,246.4,210718,000.0,W*6D
$GPGGA,201535.768,4650.202,N,07115.944,W,1,12,1.0,0.0,M,0.0,M,,*79
$GPGSA,A,3,01,02,03,04,05,06,07,08,09,10,11,12,1.0,1.0,1.0*30
$GPRMC,201535.768,A,4650.202,N,07115.944,W,053.8,246.4,210718,000.0,W*6A
$GPGGA,201536.768,4650.194,N,07115.963,W,1,12,1.0,0.0,M,0.0,M,,*73
$GPGSA,A,3,01,02,03,04,05,06,07,08,09,10,11,12,1.0,1.0,1.0*30
$GPRMC,201536.768,A,4650.194,N,07115.963,W,053.8,246.4,210718,000.0,W*60
$GPGGA,201537.768,4650.186,N,07115.981,W,1,12,1.0,0.0,M,0.0,M,,*7D
$GPGSA,A,3,01,02,03,04,05,06,07,08,09,10,11,12,1.0,1.0,1.0*30
$GPRMC,201537.768,A,4650.186,N,07115.981,W,053.8,246.4,210718,000.0,W*6E
$GPGGA,201538.768,4650.178,N,07115.999,W,1,12,1.0,0.0,M,0.0,M,,*7A
$GPGSA,A,3,01,02,03,04,05,06,07,08,09,10,11,12,1.0,1.0,1.0*30
$GPRMC,201538.768,A,4650.178,N,07115.999,W,053.8,246.4,210718,000.0,W*69
$GPGGA,201539.768,4650.170,N,07116.018,W,1,12,1.0,0.0,M,0.0,M,,*70
$GPGSA,A,3,01,02,03,04,05,06,07,08,09,10,11,12,1.0,1.0,1.0*30
$GPRMC,201539.768,A,4650.170,N,07116.018,W,053.8,246.4,210718,000.0,W*63
$GPGGA,201540.768,4650.162,N,07116.036,W,1,12,1.0,0.0,M,0.0,M,,*71
$GPGSA,A,3,01,02,03,04,05,06,07,08,09,10,11,12,1.0,1.0,1.0*30
$GPRMC,201540.768,A,4650.162,N,07116.036,W,053.8,246.4,210718,000.0,W*62
$GPGGA,201541.768,4650.154,N,07116.055,W,1,12,1.0,0.0,M,0.0,M,,*70
$GPGSA,A,3,01,02,03,04,05,06,07,08,09,10,11,12,1.0,1.0,1.0*30
$GPRMC,201541.768,A,4650.154,N,07116.055,W,053.8,246.4,210718,000.0,W*63
$GPGGA,201542.768,4650.146,N,07116.073,W,1,12,1.0,0.0,M,0.0,M,,*74
$GPGSA,A,3,01,02,03,04,05,06,07,08,09,10,11,12,1.0,1.0,1.0*30
$GPRMC,201542.768,A,4650.146,N,07116.073,W,053.8,246.4,210718,000.0,W*67
$GPGGA,201543.768,4650.138,N,07116.092,W,1,12,1.0,0.0,M,0.0,M,,*73
$GPGSA,A,3,01,02,03,04,05,06,07,08,09,10,11,12,1.0,1.0,1.0*30
$GPRMC,201543.768,A,4650.138,N,07116.092,W,053.8,246.4,210718,000.0,W*60
$GPGGA,201544.768,4650.130,N,07116.110,W,1,12,1.0,0.0,M,0.0,M,,*77
$GPGSA,A,3,01,02,03,04,05,06,07,08,09,10,11,12,1.0,1.0,1.0*30
$GPRMC,201544.768,A,4650.130,N,07116.110,W,053.8,246.4,210718,000.0,W*64
$GPGGA,201545.768,4650.122,N,07116.128,W,1,12,1.0,0.0,M,0.0,M,,*7E
$GPGSA,A,3,01,02,03,04,05,06,07,08,09,10,11,12,1.0,1.0,1.0*30
$GPRMC,201545.768,A,4650.122,N,07116.128,W,053.8,246.4,210718,000.0,W*6D
$GPGGA,201546.768,4650.114,N,07116.147,W,1,12,1.0,0.0,M,0.0,M,,*71
$GPGSA,A,3,01,02,03,04,05,06,07,08,09,10,11,12,1.0,1.0,1.0*30
$GPRMC,201546.768,A,4650.114,N,07116.147,W,053.8,246.4,210718,000.0,W*62
$GPGGA,201547.768,4650.106,N,07116.165,W,1,12,1.0,0.0,M,0.0,M,,*73
$GPGSA,A,3,01,02,03,04,05,06,07,08,09,10,11,12,1.0,1.0,1.0*30
$GPRMC,201547.768,A,4650.106,N,07116.165,W,053.8,246.4,210718,000.0,W*60
$GPGGA,201548.768,4650.098,N,07116.184,W,1,12,1.0,0.0,M,0.0,M,,*75
$GPGSA,A,3,01,02,03,04,05,06,07,08,09,10,11,12,1.0,1.0,1.0*30
$GPRMC,201548.768,A,4650.098,N,07116.184,W,053.8,246.4,210718,000.0,W*66
$GPGGA,201549.768,4650.090,N,07116.202,W,1,12,1.0,0.0,M,0.0,M,,*71
$GPGSA,A,3,01,02,03,04,05,06,07,08,09,10,11,12,1.0,1.0,1.0*30
$GPRMC,201549.768,A,4650.090,N,07116.202,W,053.8,246.4,210718,000.0,W*62
$GPGGA,201550.768,4650.082,N,07116.221,W,1,12,1.0,0.0,M,0.0,M,,*7B
$GPGSA,A,3,01,02,03,04,05,06,07,08,09,10,11,12,1.0,1.0,1.0*30
$GPRMC,201550.768,A,4650.082,N,07116.221,W,053.8,246.4,210718,000.0,W*68
$GPGGA,201551.768,4650.074,N,07116.239,W,1,12,1.0,0.0,M,0.0,M,,*7A
$GPGSA,A,3,01,02,03,04,05,06,07,08,09,10,11,12,1.0,1.0,1.0*30
$GPRMC,201551.768,A,4650.074,N,07116.239,W,053.8,246.4,210718,000.0,W*69
$GPGGA,201552.768,4650.066,N,07116.257,W,1,12,1.0,0.0,M,0.0,M,,*72
$GPGSA,A,3,01,02,03,04,05,06,07,08,09,10,11,12,1.0,1.0,1.0*30
$GPRMC,201552.768,A,4650.066,N,07116.257,W,053.8,246.4,210718,000.0,W*61
$GPGGA,201553.768,4650.058,N,07116.276,W,1,12,1.0,0.0,M,0.0,M,,*7D
$GPGSA,A,3,01,02,03,04,05,06,07,08,09,10,11,12,1.0,1.0,1.0*30
$GPRMC,201553.768,A,4650.058,N,07116.276,W,053.8,246.4,210718,000.0,W*6E
$GPGGA,201554.768,4650.050,N,07116.294,W,1,12,1.0,0.0,M,0.0,M,,*7E
$GPGSA,A,3,01,02,03,04,05,06,07,08,09,10,11,12,1.0,1.0,1.0*30
$GPRMC,201554.768,A,4650.050,N,07116.294,W,053.8,246.4,210718,000.0,W*6D
$GPGGA,201555.768,4650.042,N,07116.313,W,1,12,1.0,0.0,M,0.0,M,,*72
$GPGSA,A,3,01,02,03,04,05,06,07,08,09,10,11,12,1.0,1.0,1.0*30
$GPRMC,201555.768,A,4650.042,N,07116.313,W,053.8,246.4,210718,000.0,W*61
$GPGGA,201556.768,4650.034,N,07116.331,W,1,12,1.0,0.0,M,0.0,M,,*70
$GPGSA,A,3,01,02,03,04,05,06,07,08,09,10,11,12,1.0,1.0,1.0*30
$GPRMC,201556.768,A,4650.034,N,07116.331,W,053.8,246.4,210718,000.0,W*63
$GPGGA,201557.768,4650.026,N,07116.350,W,1,12,1.0,0.0,M,0.0,M,,*75
$GPGSA,A,3,01,02,03,04,05,06,07,08,09,10,11,12,1.0,1.0,1.0*30
$GPRMC,201557.768,A,4650.026,N,07116.350,W,053.8,246.4,210718,000.0,W*66
$GPGGA,201558.768,4650.018,N,07116.368,W,1,12,1.0,0.0,M,0.0,M,,*7C
$GPGSA,A,3,01,02,03,04,05,06,07,08,09,10,11,12,1.0,1.0,1.0*30
$GPRMC,201558.768,A,4650.018,N,07116.368,W,053.8,246.4,210718,000.0,W*6F
$GPGGA,201559.768,4650.010,N,07116.386,W,1,12,1.0,0.0,M,0.0,M,,*75
$GPGSA,A,3,01,02,03,04,05,06,07,08,09,10,11,12,1.0,1.0,1.0*30
$GPRMC,201559.768,A,4650.010,N,07116.386,W,053.8,246.4,210718,000.0,W*66
$GPGGA,201600.768,4650.002,N,07116.405,W,1,12,1.0,0.0,M,0.0,M,,*75
$GPGSA,A,3,01,02,03,04,05,06,07,08,09,10,11,12,1.0,1.0,1.0*30
$GPRMC,201600.768,A,4650.002,N,07116.405,W,053.8,246.4,210718,000.0,W*66
$GPGGA,201601.768,4649.994,N,07116.423,W,1,12,1.0,0.0,M,0.0,M,,*7E
$GPGSA,A,3,01,02,03,04,05,06,07,08,09,10,11,12,1.0,1.0,1.0*30
$GPRMC,201601.768,A,4649.994,N,07116.423,W,053.8,246.4,210718,000.0,W*6D
$GPGGA,201602.768,4649.986,N,07116.442,W,1,12,1.0,0.0,M,0.0,M,,*79
$GPGSA,A,3,01,02,03,04,05,06,07,08,09,10,11,12,1.0,1.0,1.0*30
$GPRMC,201602.768,A,4649.986,N,07116.442,W,053.8,246.4,210718,000.0,W*6A
$GPGGA,201603.768,4649.978,N,07116.460,W,1,12,1.0,0.0,M,0.0,M,,*79
$GPGSA,A,3,01,02,03,04,05,06,07,08,09,10,11,12,1.0,1.0,1.0*30
$GPRMC,201603.768,A,4649.978,N,07116.460,W,053.8,246.4,210718,000.0,W*6A
$GPGGA,201604.768,4649.970,N,07116.479,W,1,12,1.0,0.0,M,0.0,M,,*7E
$GPGSA,A,3,01,02,03,04,05,06,07,08,09,10,11,12,1.0,1.0,1.0*30
$GPRMC,201604.768,A,4649.970,N,07116.479,W,053.8,246.4,210718,000.0,W*6D
$GPGGA,201605.768,4649.962,N,07116.497,W,1,12,1.0,0.0,M,0.0,M,,*7C
$GPGSA,A,3,01,02,03,04,05,06,07,08,09,10,11,12,1.0,1.0,1.0*30
$GPRMC,201605.768,A,4649.962,N,07116.497,W,053.9,246.4,210718,000.0,W*6E
$GPGGA,201606.768,4649.954,N,07116.515,W,1,12,1.0,0.0,M,0.0,M,,*71
$GPGSA,A,3,01,02,03,04,05,06,07,08,09,10,11,12,1.0,1.0,1.0*30
$GPRMC,201606.768,A,4649.954,N,07116.515,W,053.8,246.4,210718,000.0,W*62
$GPGGA,201607.768,4649.946,N,07116.534,W,1,12,1.0,0.0,M,0.0,M,,*70
$GPGSA,A,3,01,02,03,04,05,06,07,08,09,10,11,12,1.0,1.0,1.0*30
$GPRMC,201607.768,A,4649.946,N,07116.534,W,053.8,246.4,210718,000.0,W*63
$GPGGA,201608.768,4649.938,N,07116.552,W,1,12,1.0,0.0,M,0.0,M,,*76
$GPGSA,A,3,01,02,03,04,05,06,07,08,09,10,11,12,1.0,1.0,1.0*30
$GPRMC,201608.768,A,4649.938,N,07116.552,W,053.9,246.4,210718,000.0,W*64
$GPGGA,201609.768,4649.930,N,07116.571,W,1,12,1.0,0.0,M,0.0,M,,*7E
$GPGSA,A,3,01,02,03,04,05,06,07,08,09,10,11,12,1.0,1.0,1.0*30
$GPRMC,201609.768,A,4649.930,N,07116.571,W,053.9,246.4,210718,000.0,W*6C
$GPGGA,201610.768,4649.922,N,07116.589,W,1,12,1.0,0.0,M,0.0,M,,*72
$GPGSA,A,3,01,02,03,04,05,06,07,08,09,10,11,12,1.0,1.0,1.0*30
$GPRMC,201610.768,A,4649.922,N,07116.589,W,053.9,246.4,210718,000.0,W*60
$GPGGA,201611.768,4649.914,N,07116.608,W,1,12,1.0,0.0,M,0.0,M,,*7C
$GPGSA,A,3,01,02,03,04,05,06,07,08,09,10,11,12,1.0,1.0,1.0*30
$GPRMC,201611.768,A,4649.914,N,07116.608,W,053.9,246.4,210718,000.0,W*6E
$GPGGA,201612.768,4649.905,N,07116.626,W,1,12,1.0,0.0,M,0.0,M,,*73
$GPGSA,A,3,01,02,03,04,05,06,07,08,09,10,11,12,1.0,1.0,1.0*30
$GPRMC,201612.768,A,4649.905,N,07116.626,W,053.9,246.4,210718,000.0,W*61
$GPGGA,201613.768,4649.897,N,07116.644,W,1,12,1.0,0.0,M,0.0,M,,*7C
$GPGSA,A,3,01,02,03,04,05,06,07,08,09,10,11,12,1.0,1.0,1.0*30
$GPRMC,201613.768,A,4649.897,N,07116.644,W,053.9,246.4,210718,000.0,W*6E
$GPGGA,201614.768,4649.889,N,07116.663,W,1,12,1.0,0.0,M,0.0,M,,*71
$GPGSA,A,3,01,02,03,04,05,06,07,08,09,10,11,12,1.0,1.0,1.0*30
$GPRMC,201614.768,A,4649.889,N,07116.663,W,053.9,246.4,210718,000.0,W*63
$GPGGA,201615.768,4649.881,N,07116.681,W,1,12,1.0,0.0,M,0.0,M,,*74
$GPGSA,A,3,01,02,03,04,05,06,07,08,09,10,11,12,1.0,1.0,1.0*30
$GPRMC,201615.768,A,4649.881,N,07116.681,W,053.9,246.4,210718,000.0,W*66
$GPGGA,201616.768,4649.873,N,07116.700,W,1,12,1.0,0.0,M,0.0,M,,*72
$GPGSA,A,3,01,02,03,04,05,06,07,08,09,10,11,12,1.0,1.0,1.0*30
$GPRMC,201616.768,A,4649.873,N,07116.700,W,053.9,246.4,210718,000.0,W*60
$GPGGA,201617.768,4649.865,N,07116.718,W,1,12,1.0,0.0,M,0.0,M,,*7D
$GPGSA,A,3,01,02,03,04,05,06,07,08,09,10,11,12,1.0,1.0,1.0*30
$GPRMC,201617.768,A,4649.865,N,07116.718,W,053.9,246.4,210718,000.0,W*6F
$GPGGA,201618.768,4649.857,N,07116.737,W,1,12,1.0,0.0,M,0.0,M,,*7E
$GPGSA,A,3,01,02,03,04,05,06,07,08,09,10,11,12,1.0,1.0,1.0*30
$GPRMC,201618.768,A,4649.857,N,07116.737,W,053.9,246.4,210718,000.0,W*6C
$GPGGA,201619.768,4649.849,N,07116.755,W,1,12,1.0,0.0,M,0.0,M,,*74
$GPGSA,A,3,01,02,03,04,05,06,07,08,09,10,11,12,1.0,1.0,1.0*30
$GPRMC,201619.768,A,4649.849,N,07116.755,W,053.9,246.4,210718,000.0,W*66
$GPGGA,201620.768,4649.841,N,07116.774,W,1,12,1.0,0.0,M,0.0,M,,*75
$GPGSA,A,3,01,02,03,04,05,06,07,08,09,10,11,12,1.0,1.0,1.0*30
$GPRMC,201620.768,A,4649.841,N,07116.774,W,053.9,246.4,210718,000.0,W*67
$GPGGA,201621.768,4649.833,N,07116.792,W,1,12,1.0,0.0,M,0.0,M,,*79
$GPGSA,A,3,01,02,03,04,05,06,07,08,09,10,11,12,1.0,1.0,1.0*30
$GPRMC,201621.768,A,4649.833,N,07116.792,W,053.9,246.4,210718,000.0,W*6B
$GPGGA,201622.768,4649.825,N,07116.810,W,1,12,1.0,0.0,M,0.0,M,,*78
$GPGSA,A,3,01,02,03,04,05,06,07,08,09,10,11,12,1.0,1.0,1.0*30
$GPRMC,201622.768,A,4649.825,N,07116.810,W,053.9,246.4,210718,000.0,W*6A
$GPGGA,201623.768,4649.817,N,07116.829,W,1,12,1.0,0.0,M,0.0,M,,*72
$GPGSA,A,3,01,02,03,04,05,06,07,08,09,10,11,12,1.0,1.0,1.0*30
$GPRMC,201623.768,A,4649.817,N,07116.829,W,053.9,246.4,210718,000.0,W*60
$GPGGA,201624.768,4649.809,N,07116.847,W,1,12,1.0,0.0,M,0.0,M,,*72
$GPGSA,A,3,01,02,03,04,05,06,07,08,09,10,11,12,1.0,1.0,1.0*30
$GPRMC,201624.768,A,4649.809,N,07116.847,W,053.9,246.4,210718,000.0,W*60
$GPGGA,201625.768,4649.801,N,07116.866,W,1,12,1.0,0.0,M,0.0,M,,*78
$GPGSA,A,3,01,02,03,04,05,06,07,08,09,10,11,12,1.0,1.0,1.0*30
$GPRMC,201625.768,A,4649.801,N,07116.866,W,053.9,246.4,210718,000.0,W*6A
$GPGGA,201626.768,4649.793,N,07116.884,W,1,12,1.0,0.0,M,0.0,M,,*73
$GPGSA,A,3,01,02,03,04,05,06,07,08,09,10,11,12,1.0,1.0,1.0*30
$GPRMC,201626.768,A,4649.793,N,07116.884,W,053.9,246.4,210718,000.0,W*61
$GPGGA,201627.768,4649.785,N,07116.903,W,1,12,1.0,0.0,M,0.0,M,,*7B
$GPGSA,A,3,01,02,03,04,05,06,07,08,09,10,11,12,1.0,1.0,1.0*30
$GPRMC,201627.768,A,4649.785,N,07116.903,W,053.9,246.4,210718,000.0,W*69
$GPGGA,201628.768,4649.777,N,07116.921,W,1,12,1.0,0.0,M,0.0,M,,*79
$GPGSA,A,3,01,02,03,04,05,06,07,08,09,10,11,12,1.0,1.0,1.0*30
$GPRMC,201628.768,A,4649.777,N,07116.921,W,053.9,246.4,210718,000.0,W*6B
$GPGGA,201629.768,4649.769,N,07116.939,W,1,12,1.0,0.0,M,0.0,M,,*7E
$GPGSA,A,3,01,02,03,04,05,06,07,08,09,10,11,12,1.0,1.0,1.0*30
$GPRMC,201629.768,A,4649.769,N,07116.939,W,053.9,246.4,210718,000.0,W*6C
$GPGGA,201630.768,4649.761,N,07116.958,W,1,12,1.0,0.0,M,0.0,M,,*79
$GPGSA,A,3,01,02,03,04,05,06,07,08,09,10,11,12,1.0,1.0,1.0*30
$GPRMC,201630.768,A,4649.761,N,07116.958,W,053.8,254.6,210718,000.0,W*6B
$GPGGA,201631.768,4649.755,N,07116.978,W,1,12,1.0,0.0,M,0.0,M,,*7D
$GPGSA,A,3,01,02,03,04,05,06,07,08,09,10,11,12,1.0,1.0,1.0*30
$GPRMC,201631.768,A,4649.755,N,07116.978,W,053.8,254.6,210718,000.0,W*6F
$GPGGA,201632.768,4649.750,N,07116.998,W,1,12,1.0,0.0,M,0.0,M,,*75
$GPGSA,A,3,01,02,03,04,05,06,07,08,09,10,11,12,1.0,1.0,1.0*30
$GPRMC,201632.768,A,4649.750,N,07116.998,W,053.8,254.6,210718,000.0,W*67
$GPGGA,201633.768,4649.744,N,07117.019,W,1,12,1.0,0.0,M,0.0,M,,*70
$GPGSA,A,3,01,02,03,04,05,06,07,08,09,10,11,12,1.0,1.0,1.0*30
$GPRMC,201633.768,A,4649.744,N,07117.019,W,053.8,254.6,210718,000.0,W*62
$GPGGA,201634.768,4649.739,N,07117.039,W,1,12,1.0,0.0,M,0.0,M,,*7F
$GPGSA,A,3,01,02,03,04,05,06,07,08,09,10,11,12,1.0,1.0,1.0*30
$GPRMC,201634.768,A,4649.739,N,07117.039,W,053.8,254.6,210718,000.0,W*6D
$GPGGA,201635.768,4649.733,N,07117.059,W,1,12,1.0,0.0,M,0.0,M,,*72
$GPGSA,A,3,01,02,03,04,05,06,07,08,09,10,11,12,1.0,1.0,1.0*30
$GPRMC,201635.768,A,4649.733,N,07117.059,W,053.8,254.6,210718,000.0,W*60
$GPGGA,201636.768,4649.727,N,07117.079,W,1,12,1.0,0.0,M,0.0,M,,*76
$GPGSA,A,3,01,02,03,04,05,06,07,08,09,10,11,12,1.0,1.0,1.0*30
$GPRMC,201636.768,A,4649.727,N,07117.079,W,053.8,254.6,210718,000.0,W*64
$GPGGA,201637.768,4649.722,N,07117.100,W,1,12,1.0,0.0,M,0.0,M,,*7D
$GPGSA,A,3,01,02,03,04,05,06,07,08,09,10,11,12,1.0,1.0,1.0*30
$GPRMC,201637.768,A,4649.722,N,07117.100,W,053.8,254.6,210718,000.0,W*6F
$GPGGA,201638.768,4649.716,N,07117.120,W,1,12,1.0,0.0,M,0.0,M,,*77
$GPGSA,A,3,01,02,03,04,05,06,07,08,09,10,11,12,1.0,1.0,1.0*30
$GPRMC,201638.768,A,4649.716,N,07117.120,W,053.8,254.6,210718,000.0,W*65
$GPGGA,201639.768,4649.711,N,07117.140,W,1,12,1.0,0.0,M,0.0,M,,*77
$GPGSA,A,3,01,02,03,04,05,06,07,08,09,10,11,12,1.0,1.0,1.0*30
$GPRMC,201639.768,A,4649.711,N,07117.140,W,053.8,254.6,210718,000.0,W*65
$GPGGA,201640.768,4649.705,N,07117.160,W,1,12,1.0,0.0,M,0.0,M,,*7E
$GPGSA,A,3,01,02,03,04,05,06,07,08,09,10,11,12,1.0,1.0,1.0*30
$GPRMC,201640.768,A,4649.705,N,07117.160,W,053.8,254.6,210718,000.0,W*6C
$GPGGA,201641.768,4649.700,N,07117.181,W,1,12,1.0,0.0,M,0.0,M,,*75
$GPGSA,A,3,01,02,03,04,05,06,07,08,09,10,11,12,1.0,1.0,1.0*30
$GPRMC,201641.768,A,4649.700,N,07117.181,W,053.8,254.6,210718,000.0,W*67
$GPGGA,201642.768,4649.694,N,07117.201,W,1,12,1.0,0.0,M,0.0,M,,*71
$GPGSA,A,3,01,02,03,04,05,06,07,08,09,10,11,12,1.0,1.0,1.0*30
$GPRMC,201642.768,A,4649.694,N,07117.201,W,053.8,254.6,210718,000.0,W*63
$GPGGA,201643.768,4649.688,N,07117.221,W,1,12,1.0,0.0,M,0.0,M,,*7F
$GPGSA,A,3,01,02,03,04,05,06,07,08,09,10,11,12,1.0,1.0,1.0*30
$GPRMC,201643.768,A,4649.688,N,07117.221,W,053.8,254.6,210718,000.0,W*6D
$GPGGA,201644.768,4649.683,N,07117.242,W,1,12,1.0,0.0,M,0.0,M,,*76
$GPGSA,A,3,01,02,03,04,05,06,07,08,09,10,11,12,1.0,1.0,1.0*30
$GPRMC,201644.768,A,4649.683,N,07117.242,W,053.8,254.6,210718,000.0,W*64
$GPGGA,201645.768,4649.677,N,07117.262,W,1,12,1.0,0.0,M,0.0,M,,*7E
$GPGSA,A,3,01,02,03,04,05,06,07,08,09,10,11,12,1.0,1.0,1.0*30
$GPRMC,201645.768,A,4649.677,N,07117.262,W,053.8,254.6,210718,000.0,W*6C
$GPGGA,201646.768,4649.672,N,07117.282,W,1,12,1.0,0.0,M,0.0,M,,*76
$GPGSA,A,3,01,02,03,04,05,06,07,08,09,10,11,12,1.0,1.0,1.0*30
$GPRMC,201646.768,A,4649.672,N,07117.282,W,053.8,254.6,210718,000.0,W*64
$GPGGA,201647.768,4649.666,N,07117.302,W,1,12,1.0,0.0,M,0.0,M,,*7B
$GPGSA,A,3,01,02,03,04,05,06,07,08,09,10,11,12,1.0,1.0,1.0*30
$GPRMC,201647.768,A,4649.666,N,07117.302,W,053.8,254.6,210718,000.0,W*69
$GPGGA,201648.768,4649.661,N,07117.323,W,1,12,1.0,0.0,M,0.0,M,,*70
$GPGSA,A,3,01,02,03,04,05,06,07,08,09,10,11,12,1.0,1.0,1.0*30
$GPRMC,201648.768,A,4649.661,N,07117.323,W,053.8,254.6,210718,000.0,W*62
$GPGGA,201649.768,4649.655,N,07117.343,W,1,12,1.0,0.0,M,0.0,M,,*70
$GPGSA,A,3,01,02,03,04,05,06,07,08,09,10,11,12,1.0,1.0,1.0*30
$GPRMC,201649.768,A,4649.655,N,07117.343,W,053.8,254.6,210718,000.0,W*62
$GPGGA,201650.768,4649.649,N,07117.363,W,1,12,1.0,0.0,M,0.0,M,,*77
$GPGSA,A,3,01,02,03,04,05,06,07,08,09,10,11,12,1.0,1.0,1.0*30
$GPRMC,201650.768,A,4649.649,N,07117.363,W,053.8,254.6,210718,000.0,W*65
$GPGGA,201651.768,4649.644,N,07117.383,W,1,12,1.0,0.0,M,0.0,M,,*75
$GPGSA,A,3,01,02,03,04,05,06,07,08,09,10,11,12,1.0,1.0,1.0*30
$GPRMC,201651.768,A,4649.644,N,07117.383,W,053.8,254.6,210718,000.0,W*67
$GPGGA,201652.768,4649.638,N,07117.404,W,1,12,1.0,0.0,M,0.0,M,,*75
$GPGSA,A,3,01,02,03,04,05,06,07,08,09,10,11,12,1.0,1.0,1.0*30
$GPRMC,201652.768,A,4649.638,N,07117.404,W,053.8,254.6,210718,000.0,W*67
$GPGGA,201653.768,4649.633,N,07117.424,W,1,12,1.0,0.0,M,0.0,M,,*7D
$GPGSA,A,3,01,02,03,04,05,06,07,08,09,10,11,12,1.0,1.0,1.0*30
$GPRMC,201653.768,A,4649.633,N,07117.424,W,053.8,254.6,210718,000.0,W*6F
$GPGGA,201654.768,4649.627,N,07117.444,W,1,12,1.0,0.0,M,0.0,M,,*79
$GPGSA,A,3,01,02,03,04,05,06,07,08,09,10,11,12,1.0,1.0,1.0*30
$GPRMC,201654.768,A,4649.627,N,07117.444,W,053.8,254.6,210718,000.0,W*6B
$GPGGA,201655.768,4649.621,N,07117.464,W,1,12,1.0,0.0,M,0.0,M,,*7C
$GPGSA,A,3,01,02,03,04,05,06,07,08,09,10,11,12,1.0,1.0,1.0*30
$GPRMC,201655.768,A,4649.621,N,07117.464,W,053.8,254.6,210718,000.0,W*6E
$GPGGA,201656.768,4649.616,N,07117.485,W,1,12,1.0,0.0,M,0.0,M,,*74
$GPGSA,A,3,01,02,03,04,05,06,07,08,09,10,11,12,1.0,1.0,1.0*30
$GPRMC,201656.768,A,4649.616,N,07117.485,W,053.8,254.6,210718,000.0,W*66
$GPGGA,201657.768,4649.610,N,07117.505,W,1,12,1.0,0.0,M,0.0,M,,*7A
$GPGSA,A,3,01,02,03,04,05,06,07,08,09,10,11,12,1.0,1.0,1.0*30
$GPRMC,201657.768,A,4649.610,N,07117.505,W,053.8,254.6,210718,000.0,W*68
$GPGGA,201658.768,4649.605,N,07117.525,W,1,12,1.0,0.0,M,0.0,M,,*73
$GPGSA,A,3,01,02,03,04,05,06,07,08,09,10,11,12,1.0,1.0,1.0*30
$GPRMC,201658.768,A,4649.605,N,07117.525,W,053.8,254.6,210718,000.0,W*61
$GPGGA,201659.768,4649.599,N,07117.546,W,1,12,1.0,0.0,M,0.0,M,,*71
$GPGSA,A,3,01,02,03,04,05,06,07,08,09,10,11,12,1.0,1.0,1.0*30
$GPRMC,201659.768,A,4649.599,N,07117.546,W,053.8,254.6,210718,000.0,W*63
$GPGGA,201700.768,4649.594,N,07117.566,W,1,12,1.0,0.0,M,0.0,M,,*73
$GPGSA,A,3,01,02,03,04,05,06,07,08,09,10,11,12,1.0,1.0,1.0*30
$GPRMC,201700.768,A,4649.594,N,07117.566,W,019.4,258.4,210718,000.0,W*6D
$GPGGA,201701.768,4649.592,N,07117.573,W,1,12,1.0,0.0,M,0.0,M,,*70
$GPGSA,A,3,01,02,03,04,05,06,07,08,09,10,11,12,1.0,1.0,1.0*30
$GPRMC,201701.768,A,4649.592,N,07117.573,W,019.4,258.4,210718,000.0,W*6E
$GPGGA,201702.768,4649.590,N,07117.581,W,1,12,1.0,0.0,M,0.0,M,,*7C
$GPGSA,A,3,01,02,03,04,05,06,07,08,09,10,11,12,1.0,1.0,1.0*30
$GPRMC,201702.768,A,4649.590,N,07117.581,W,019.4,258.4,210718,000.0,W*62
$GPGGA,201703.768,4649.589,N,07117.588,W,1,12,1.0,0.0,M,0.0,M,,*7C
$GPGSA,A,3,01,02,03,04,05,06,07,08,09,10,11,12,1.0,1.0,1.0*30
$GPRMC,201703.768,A,4649.589,N,07117.588,W,019.4,258.4,210718,000.0,W*62
$GPGGA,201704.768,4649.587,N,07117.596,W,1,12,1.0,0.0,M,0.0,M,,*7A
$GPGSA,A,3,01,02,03,04,05,06,07,08,09,10,11,12,1.0,1.0,1.0*30
$GPRMC,201704.768,A,4649.587,N,07117.596,W,019.4,258.4,210718,000.0,W*64
$GPGGA,201705.768,4649.586,N,07117.604,W,1,12,1.0,0.0,M,0.0,M,,*72
$GPGSA,A,3,01,02,03,04,05,06,07,08,09,10,11,12,1.0,1.0,1.0*30
$GPRMC,201705.768,A,4649.586,N,07117.604,W,019.4,258.4,210718,000.0,W*6C
$GPGGA,201706.768,4649.584,N,07117.611,W,1,12,1.0,0.0,M,0.0,M,,*77
$GPGSA,A,3,01,02,03,04,05,06,07,08,09,10,11,12,1.0,1.0,1.0*30
$GPRMC,201706.768,A,4649.584,N,07117.611,W,019.4,258.4,210718,000.0,W*69
$GPGGA,201707.768,4649.583,N,07117.619,W,1,12,1.0,0.0,M,0.0,M,,*79
$GPGSA,A,3,01,02,03,04,05,06,07,08,09,10,11,12,1.0,1.0,1.0*30
$GPRMC,201707.768,A,4649.583,N,07117.619,W,019.4,258.4,210718,000.0,W*67
$GPGGA,201708.768,4649.581,N,07117.626,W,1,12,1.0,0.0,M,0.0,M,,*78
$GPGSA,A,3,01,02,03,04,05,06,07,08,09,10,11,12,1.0,1.0,1.0*30
$GPRMC,201708.768,A,4649.581,N,07117.626,W,019.4,258.4,210718,000.0,W*66
$GPGGA,201709.768,4649.580,N,07117.634,W,1,12,1.0,0.0,M,0.0,M,,*7B
$GPGSA,A,3,01,02,03,04,05,06,07,08,09,10,11,12,1.0,1.0,1.0*30
$GPRMC,201709.768,A,4649.580,N,07117.634,W,019.4,258.4,210718,000.0,W*65
$GPGGA,201710.768,4649.578,N,07117.641,W,1,12,1.0,0.0,M,0.0,M,,*76
$GPGSA,A,3,01,02,03,04,05,06,07,08,09,10,11,12,1.0,1.0,1.0*30
$GPRMC,201710.768,A,4649.578,N,07117.641,W,019.4,258.4,210718,000.0,W*68
$GPGGA,201711.768,4649.576,N,07117.649,W,1,12,1.0,0.0,M,0.0,M,,*71
$GPGSA,A,3,01,02,03,04,05,06,07,08,09,10,11,12,1.0,1.0,1.0*30
$GPRMC,201711.768,A,4649.576,N,07117.649,W,019.4,258.4,210718,000.0,W*6F
$GPGGA,201712.768,4649.575,N,07117.656,W,1,12,1.0,0.0,M,0.0,M,,*7F
$GPGSA,A,3,01,02,03,04,05,06,07,08,09,10,11,12,1.0,1.0,1.0*30
$GPRMC,201712.768,A,4649.575,N,07117.656,W,019.4,265.7,210718,000.0,W*6C
$GPGGA,201713.768,4649.574,N,07117.664,W,1,12,1.0,0.0,M,0.0,M,,*7E
$GPGSA,A,3,01,02,03,04,05,06,07,08,09,10,11,12,1.0,1.0,1.0*30
$GPRMC,201713.768,A,4649.574,N,07117.664,W,019.4,265.7,210718,000.0,W*6D
$GPGGA,201714.768,4649.574,N,07117.672,W,1,12,1.0,0.0,M,0.0,M,,*7E
$GPGSA,A,3,01,02,03,04,05,06,07,08,09,10,11,12,1.0,1.0,1.0*30
$GPRMC,201714.768,A,4649.574,N,07117.672,W,019.4,265.7,210718,000.0,W*6D
$GPGGA,201715.768,4649.573,N,07117.680,W,1,12,1.0,0.0,M,0.0,M,,*75
$GPGSA,A,3,01,02,03,04,05,06,07,08,09,10,11,12,1.0,1.0,1.0*30
$GPRMC,201715.768,A,4649.573,N,07117.680,W,019.4,265.7,210718,000.0,W*66
$GPGGA,201716.768,4649.573,N,07117.688,W,1,12,1.0,0.0,M,0.0,M,,*7E
$GPGSA,A,3,01,02,03,04,05,06,07,08,09,10,11,12,1.0,1.0,1.0*30
$GPRMC,201716.768,A,4649.573,N,07117.688,W,019.4,273.9,210718,000.0,W*64
$GPGGA,201717.768,4649.573,N,07117.696,W,1,12,1.0,0.0,M,0.0,M,,*70
$GPGSA,A,3,01,02,03,04,05,06,07,08,09,10,11,12,1.0,1.0,1.0*30
$GPRMC,201717.768,A,4649.573,N,07117.696,W,019.4,273.9,210718,000.0,W*6A
$GPGGA,201718.768,4649.574,N,07117.703,W,1,12,1.0,0.0,M,0.0,M,,*75
$GPGSA,A,3,01,02,03,04,05,06,07,08,09,10,11,12,1.0,1.0,1.0*30
$GPRMC,201718.768,A,4649.574,N,07117.703,W,019.4,273.9,210718,000.0,W*6F
$GPGGA,201719.768,4649.574,N,07117.711,W,1,12,1.0,0.0,M,0.0,M,,*77
$GPGSA,A,3,01,02,03,04,05,06,07,08,09,10,11,12,1.0,1.0,1.0*30
$GPRMC,201719.768,A,4649.574,N,07117.711,W,019.4,273.9,210718,000.0,W*6D
$GPGGA,201720.768,4649.575,N,07117.719,W,1,12,1.0,0.0,M,0.0,M,,*74
$GPGSA,A,3,01,02,03,04,05,06,07,08,09,10,11,12,1.0,1.0,1.0*30
$GPRMC,201720.768,A,4649.575,N,07117.719,W,019.4,273.9,210718,000.0,W*6E
$GPGGA,201721.768,4649.575,N,07117.727,W,1,12,1.0,0.0,M,0.0,M,,*78
$GPGSA,A,3,01,02,03,04,05,06,07,08,09,10,11,12,1.0,1.0,1.0*30
$GPRMC,201721.768,A,4649.575,N,07117.727,W,019.4,293.4,210718,000.0,W*61
$GPGGA,201722.768,4649.578,N,07117.734,W,1,12,1.0,0.0,M,0.0,M,,*74
$GPGSA,A,3,01,02,03,04,05,06,07,08,09,10,11,12,1.0,1.0,1.0*30
$GPRMC,201722.768,A,4649.578,N,07117.734,W,019.4,293.4,210718,000.0,W*6D
$GPGGA,201723.768,4649.581,N,07117.740,W,1,12,1.0,0.0,M,0.0,M,,*70
$GPGSA,A,3,01,02,03,04,05,06,07,08,09,10,11,12,1.0,1.0,1.0*30
$GPRMC,201723.768,A,4649.581,N,07117.740,W,019.4,293.4,210718,000.0,W*69
$GPGGA,201724.768,4649.584,N,07117.747,W,1,12,1.0,0.0,M,0.0,M,,*75
$GPGSA,A,3,01,02,03,04,05,06,07,08,09,10,11,12,1.0,1.0,1.0*30
$GPRMC,201724.768,A,4649.584,N,07117.747,W,019.4,293.4,210718,000.0,W*6C
$GPGGA,201725.768,4649.587,N,07117.754,W,1,12,1.0,0.0,M,0.0,M,,*75
$GPGSA,A,3,01,02,03,04,05,06,07,08,09,10,11,12,1.0,1.0,1.0*30
$GPRMC,201725.768,A,4649.587,N,07117.754,W,019.4,293.4,210718,000.0,W*6C
$GPGGA,201726.768,4649.590,N,07117.760,W,1,12,1.0,0.0,M,0.0,M,,*77
$GPGSA,A,3,01,02,03,04,05,06,07,08,09,10,11,12,1.0,1.0,1.0*30
$GPRMC,201726.768,A,4649.590,N,07117.760,W,019.4,293.4,210718,000.0,W*6E
$GPGGA,201727.768,4649.593,N,07117.767,W,1,12,1.0,0.0,M,0.0,M,,*72
$GPGSA,A,3,01,02,03,04,05,06,07,08,09,10,11,12,1.0,1.0,1.0*30
$GPRMC,201727.768,A,4649.593,N,07117.767,W,019.4,293.4,210718,000.0,W*6B
$GPGGA,201728.768,4649.595,N,07117.774,W,1,12,1.0,0.0,M,0.0,M,,*79
$GPGSA,A,3,01,02,03,04,05,06,07,08,09,10,11,12,1.0,1.0,1.0*30
$GPRMC,201728.768,A,4649.595,N,07117.774,W,019.4,296.2,210718,000.0,W*63
$GPGGA,201729.768,4649.599,N,07117.780,W,1,12,1.0,0.0,M,0.0,M,,*7F
$GPGSA,A,3,01,02,03,04,05,06,07,08,09,10,11,12,1.0,1.0,1.0*30
$GPRMC,201729.768,A,4649.599,N,07117.780,W,019.4,296.2,210718,000.0,W*65
$GPGGA,201730.768,4649.602,N,07117.787,W,1,12,1.0,0.0,M,0.0,M,,*71
$GPGSA,A,3,01,02,03,04,05,06,07,08,09,10,11,12,1.0,1.0,1.0*30
$GPRMC,201730.768,A,4649.602,N,07117.787,W,019.4,296.2,210718,000.0,W*6B
$GPGGA,201731.768,4649.605,N,07117.793,W,1,12,1.0,0.0,M,0.0,M,,*72
$GPGSA,A,3,01,02,03,04,05,06,07,08,09,10,11,12,1.0,1.0,1.0*30
$GPRMC,201731.768,A,4649.605,N,07117.793,W,019.4,296.2,210718,000.0,W*68
$GPGGA,201732.768,4649.608,N,07117.799,W,1,12,1.0,0.0,M,0.0,M,,*76
$GPGSA,A,3,01,02,03,04,05,06,07,08,09,10,11,12,1.0,1.0,1.0*30
$GPRMC,201732.768,A,4649.608,N,07117.799,W,019.4,296.2,210718,000.0,W*6C
$GPGGA,201733.768,4649.611,N,07117.806,W,1,12,1.0,0.0,M,0.0,M,,*76
$GPGSA,A,3,01,02,03,04,05,06,07,08,09,10,11,12,1.0,1.0,1.0*30
$GPRMC,201733.768,A,4649.611,N,07117.806,W,019.4,289.6,210718,000.0,W*66
$GPGGA,201734.768,4649.614,N,07117.813,W,1,12,1.0,0.0,M,0.0,M,,*70
$GPGSA,A,3,01,02,03,04,05,06,07,08,09,10,11,12,1.0,1.0,1.0*30
$GPRMC,201734.768,A,4649.614,N,07117.813,W,019.4,289.6,210718,000.0,W*60
$GPGGA,201735.768,4649.616,N,07117.820,W,1,12,1.0,0.0,M,0.0,M,,*73
$GPGSA,A,3,01,02,03,04,05,06,07,08,09,10,11,12,1.0,1.0,1.0*30
$GPRMC,201735.768,A,4649.616,N,07117.820,W,019.4,289.6,210718,000.0,W*63
$GPGGA,201736.768,4649.619,N,07117.827,W,1,12,1.0,0.0,M,0.0,M,,*78
$GPGSA,A,3,01,02,03,04,05,06,07,08,09,10,11,12,1.0,1.0,1.0*30
$GPRMC,201736.768,A,4649.619,N,07117.827,W,019.4,289.6,210718,000.0,W*68
$GPGGA,201737.768,4649.621,N,07117.834,W,1,12,1.0,0.0,M,0.0,M,,*70
$GPGSA,A,3,01,02,03,04,05,06,07,08,09,10,11,12,1.0,1.0,1.0*30
$GPRMC,201737.768,A,4649.621,N,07117.834,W,019.4,289.6,210718,000.0,W*60
$GPGGA,201738.768,4649.624,N,07117.841,W,1,12,1.0,0.0,M,0.0,M,,*78
$GPGSA,A,3,01,02,03,04,05,06,07,08,09,10,11,12,1.0,1.0,1.0*30
$GPRMC,201738.768,A,4649.624,N,07117.841,W,019.4,289.6,210718,000.0,W*68
$GPGGA,201739.768,4649.626,N,07117.848,W,1,12,1.0,0.0,M,0.0,M,,*72
$GPGSA,A,3,01,02,03,04,05,06,07,08,09,10,11,12,1.0,1.0,1.0*30
$GPRMC,201739.768,A,4649.626,N,07117.848,W,019.4,289.6,210718,000.0,W*62
$GPGGA,201740.768,4649.629,N,07117.855,W,1,12,1.0,0.0,M,0.0,M,,*7F
$GPGSA,A,3,01,02,03,04,05,06,07,08,09,10,11,12,1.0,1.0,1.0*30
$GPRMC,201740.768,A,4649.629,N,07117.855,W,019.4,289.6,210718,000.0,W*6F
$GPGGA,201741.768,4649.631,N,07117.862,W,1,12,1.0,0.0,M,0.0,M,,*73
$GPGSA,A,3,01,02,03,04,05,06,07,08,09,10,11,12,1.0,1.0,1.0*30
$GPRMC,201741.768,A,4649.631,N,07117.862,W,019.4,289.6,210718,000.0,W*63
$GPGGA,201742.768,4649.633,N,07117.869,W,1,12,1.0,0.0,M,0.0,M,,*79
$GPGSA,A,3,01,02,03,04,05,06,07,08,09,10,11,12,1.0,1.0,1.0*30
$GPRMC,201742.768,A,4649.633,N,07117.869,W,019.4,267.8,210718,000.0,W*67
$GPGGA,201743.768,4649.633,N,07117.877,W,1,12,1.0,0.0,M,0.0,M,,*77
$GPGSA,A,3,01,02,03,04,05,06,07,08,09,10,11,12,1.0,1.0,1.0*30
$GPRMC,201743.768,A,4649.633,N,07117.877,W,019.4,267.8,210718,000.0,W*69
$GPGGA,201744.768,4649.633,N,07117.884,W,1,12,1.0,0.0,M,0.0,M,,*7C
$GPGSA,A,3,01,02,03,04,05,06,07,08,09,10,11,12,1.0,1.0,1.0*30
$GPRMC,201744.768,A,4649.633,N,07117.884,W,019.4,267.8,210718,000.0,W*62
$GPGGA,201745.768,4649.633,N,07117.892,W,1,12,1.0,0.0,M,0.0,M,,*7A
$GPGSA,A,3,01,02,03,04,05,06,07,08,09,10,11,12,1.0,1.0,1.0*30
$GPRMC,201745.768,A,4649.633,N,07117.892,W,019.4,267.8,210718,000.0,W*64
$GPGGA,201746.768,4649.632,N,07117.900,W,1,12,1.0,0.0,M,0.0,M,,*72
$GPGSA,A,3,01,02,03,04,05,06,07,08,09,10,11,12,1.0,1.0,1.0*30
$GPRMC,201746.768,A,4649.632,N,07117.900,W,019.4,267.8,210718,000.0,W*6C
$GPGGA,201747.768,4649.632,N,07117.908,W,1,12,1.0,0.0,M,0.0,M,,*7B
$GPGSA,A,3,01,02,03,04,05,06,07,08,09,10,11,12,1.0,1.0,1.0*30
$GPRMC,201747.768,A,4649.632,N,07117.908,W,019.4,267.8,210718,000.0,W*65
$GPGGA,201748.768,4649.632,N,07117.916,W,1,12,1.0,0.0,M,0.0,M,,*7B
$GPGSA,A,3,01,02,03,04,05,06,07,08,09,10,11,12,1.0,1.0,1.0*30
$GPRMC,201748.768,A,4649.632,N,07117.916,W,019.4,268.2,210718,000.0,W*60
$GPGGA,201749.768,4649.631,N,07117.924,W,1,12,1.0,0.0,M,0.0,M,,*78
$GPGSA,A,3,01,02,03,04,05,06,07,08,09,10,11,12,1.0,1.0,1.0*30
$GPRMC,201749.768,A,4649.631,N,07117.924,W,019.4,268.2,210718,000.0,W*63
$GPGGA,201750.768,4649.631,N,07117.932,W,1,12,1.0,0.0,M,0.0,M,,*77
$GPGSA,A,3,01,02,03,04,05,06,07,08,09,10,11,12,1.0,1.0,1.0*30
$GPRMC,201750.768,A,4649.631,N,07117.932,W,019.4,268.2,210718,000.0,W*6C
$GPGGA,201751.768,4649.631,N,07117.940,W,1,12,1.0,0.0,M,0.0,M,,*73
$GPGSA,A,3,01,02,03,04,05,06,07,08,09,10,11,12,1.0,1.0,1.0*30
$GPRMC,201751.768,A,4649.631,N,07117.940,W,019.4,268.2,210718,000.0,W*68
$GPGGA,201752.768,4649.631,N,07117.947,W,1,12,1.0,0.0,M,0.0,M,,*77
$GPGSA,A,3,01,02,03,04,05,06,07,08,09,10,11,12,1.0,1.0,1.0*30
$GPRMC,201752.768,A,4649.631,N,07117.947,W,019.4,268.2,210718,000.0,W*6C
$GPGGA,201753.768,4649.630,N,07117.955,W,1,12,1.0,0.0,M,0.0,M,,*74
$GPGSA,A,3,01,02,03,04,05,06,07,08,09,10,11,12,1.0,1.0,1.0*30
$GPRMC,201753.768,A,4649.630,N,07117.955,W,019.4,268.2,210718,000.0,W*6F
$GPGGA,201754.768,4649.630,N,07117.963,W,1,12,1.0,0.0,M,0.0,M,,*76
$GPGSA,A,3,01,02,03,04,05,06,07,08,09,10,11,12,1.0,1.0,1.0*30
$GPRMC,201754.768,A,4649.630,N,07117.963,W,019.4,268.2,210718,000.0,W*6D
$GPGGA,201755.768,4649.630,N,07117.971,W,1,12,1.0,0.0,M,0.0,M,,*74
$GPGSA,A,3,01,02,03,04,05,06,07,08,09,10,11,12,1.0,1.0,1.0*30
$GPRMC,201755.768,A,4649.630,N,07117.971,W,019.4,268.2,210718,000.0,W*6F
$GPGGA,201756.768,4649.630,N,07117.979,W,1,12,1.0,0.0,M,0.0,M,,*7F
$GPGSA,A,3,01,02,03,04,05,06,07,08,09,10,11,12,1.0,1.0,1.0*30
$GPRMC,201756.768,A,4649.630,N,07117.979,W,019.4,286.3,210718,000.0,W*65
$GPGGA,201757.768,4649.632,N,07117.986,W,1,12,1.0,0.0,M,0.0,M,,*7C
$GPGSA,A,3,01,02,03,04,05,06,07,08,09,10,11,12,1.0,1.0,1.0*30
$GPRMC,201757.768,A,4649.632,N,07117.986,W,019.4,286.3,210718,000.0,W*66
$GPGGA,201758.768,4649.634,N,07117.994,W,1,12,1.0,0.0,M,0.0,M,,*76
$GPGSA,A,3,01,02,03,04,05,06,07,08,09,10,11,12,1.0,1.0,1.0*30
$GPRMC,201758.768,A,4649.634,N,07117.994,W,019.4,286.3,210718,000.0,W*6C
$GPGGA,201759.768,4649.636,N,07118.001,W,1,12,1.0,0.0,M,0.0,M,,*7F
$GPGSA,A,3,01,02,03,04,05,06,07,08,09,10,11,12,1.0,1.0,1.0*30
$GPRMC,201759.768,A,4649.636,N,07118.001,W,019.4,286.3,210718,000.0,W*65
$GPGGA,201800.768,4649.638,N,07118.008,W,1,12,1.0,0.0,M,0.0,M,,*7B
$GPGSA,A,3,01,02,03,04,05,06,07,08,09,10,11,12,1.0,1.0,1.0*30
$GPRMC,201800.768,A,4649.638,N,07118.008,W,009.7,330.5,210718,000.0,W*69
$GPGGA,201801.768,4649.641,N,07118.009,W,1,12,1.0,0.0,M,0.0,M,,*75
$GPGSA,A,3,01,02,03,04,05,06,07,08,09,10,11,12,1.0,1.0,1.0*30
$GPRMC,201801.768,A,4649.641,N,07118.009,W,009.7,330.5,210718,000.0,W*67
$GPGGA,201802.768,4649.643,N,07118.011,W,1,12,1.0,0.0,M,0.0,M,,*7D
$GPGSA,A,3,01,02,03,04,05,06,07,08,09,10,11,12,1.0,1.0,1.0*30
$GPRMC,201802.768,A,4649.643,N,07118.011,W,009.7,330.5,210718,000.0,W*6F
$GPGGA,201803.768,4649.646,N,07118.012,W,1,12,1.0,0.0,M,0.0,M,,*7A
$GPGSA,A,3,01,02,03,04,05,06,07,08,09,10,11,12,1.0,1.0,1.0*30
$GPRMC,201803.768,A,4649.646,N,07118.012,W,009.7,334.2,210718,000.0,W*6B
$GPGGA,201804.768,4649.648,N,07118.014,W,1,12,1.0,0.0,M,0.0,M,,*75
$GPGSA,A,3,01,02,03,04,05,06,07,08,09,10,11,12,1.0,1.0,1.0*30
$GPRMC,201804.768,A,4649.648,N,07118.014,W,009.7,334.2,210718,000.0,W*64
$GPGGA,201805.768,4649.651,N,07118.015,W,1,12,1.0,0.0,M,0.0,M,,*7D
$GPGSA,A,3,01,02,03,04,05,06,07,08,09,10,11,12,1.0,1.0,1.0*30
$GPRMC,201805.768,A,4649.651,N,07118.015,W,009.7,334.2,210718,000.0,W*6C
$GPGGA,201806.768,4649.653,N,07118.016,W,1,12,1.0,0.0,M,0.0,M,,*7F
$GPGSA,A,3,01,02,03,04,05,06,07,08,09,10,11,12,1.0,1.0,1.0*30
$GPRMC,201806.768,A,4649.653,N,07118.016,W,009.7,076.1,210718,000.0,W*68
$GPGGA,201807.768,4649.654,N,07118.012,W,1,12,1.0,0.0,M,0.0,M,,*7D
$GPGSA,A,3,01,02,03,04,05,06,07,08,09,10,11,12,1.0,1.0,1.0*30
$GPRMC,201807.768,A,4649.654,N,07118.012,W,009.7,076.1,210718,000.0,W*6A
$GPGGA,201808.768,4649.655,N,07118.009,W,1,12,1.0,0.0,M,0.0,M,,*79
$GPGSA,A,3,01,02,03,04,05,06,07,08,09,10,11,12,1.0,1.0,1.0*30
$GPRMC,201808.768,A,4649.655,N,07118.009,W,009.7,076.1,210718,000.0,W*6E
$GPGGA,201809.768,4649.656,N,07118.005,W,1,12,1.0,0.0,M,0.0,M,,*77
$GPGSA,A,3,01,02,03,04,05,06,07,08,09,10,11,12,1.0,1.0,1.0*30
$GPRMC,201809.768,A,4649.656,N,07118.005,W,009.7,076.1,210718,000.0,W*60
$GPGGA,201810.768,4649.657,N,07118.001,W,1,12,1.0,0.0,M,0.0,M,,*7A
$GPGSA,A,3,01,02,03,04,05,06,07,08,09,10,11,12,1.0,1.0,1.0*30
$GPRMC,201810.768,A,4649.657,N,07118.001,W,009.7,095.2,210718,000.0,W*63
$GPGGA,201811.768,4649.657,N,07117.997,W,1,12,1.0,0.0,M,0.0,M,,*72
$GPGSA,A,3,01,02,03,04,05,06,07,08,09,10,11,12,1.0,1.0,1.0*30
$GPRMC,201811.768,A,4649.657,N,07117.997,W,009.7,095.2,210718,000.0,W*6B
$GPGGA,201812.768,4649.656,N,07117.993,W,1,12,1.0,0.0,M,0.0,M,,*74
$GPGSA,A,3,01,02,03,04,05,06,07,08,09,10,11,12,1.0,1.0,1.0*30
$GPRMC,201812.768,A,4649.656,N,07117.993,W,009.7,095.2,210718,000.0,W*6D
$GPGGA,201813.768,4649.656,N,07117.989,W,1,12,1.0,0.0,M,0.0,M,,*7E
$GPGSA,A,3,01,02,03,04,05,06,07,08,09,10,11,12,1.0,1.0,1.0*30
$GPRMC,201813.768,A,4649.656,N,07117.989,W,009.7,095.2,210718,000.0,W*67
$GPGGA,201814.768,4649.656,N,07117.986,W,1,12,1.0,0.0,M,0.0,M,,*76
$GPGSA,A,3,01,02,03,04,05,06,07,08,09,10,11,12,1.0,1.0,1.0*30
$GPRMC,201814.768,A,4649.656,N,07117.986,W,009.7,095.2,210718,000.0,W*6F
$GPGGA,201815.768,4649.655,N,07117.982,W,1,12,1.0,0.0,M,0.0,M,,*70
$GPGSA,A,3,01,02,03,04,05,06,07,08,09,10,11,12,1.0,1.0,1.0*30
$GPRMC,201815.768,A,4649.655,N,07117.982,W,009.7,086.1,210718,000.0,W*68
$GPGGA,201816.768,4649.655,N,07117.978,W,1,12,1.0,0.0,M,0.0,M,,*76
$GPGSA,A,3,01,02,03,04,05,06,07,08,09,10,11,12,1.0,1.0,1.0*30
$GPRMC,201816.768,A,4649.655,N,07117.978,W,009.7,086.1,210718,000.0,W*6E
$GPGGA,201817.768,4649.656,N,07117.974,W,1,12,1.0,0.0,M,0.0,M,,*78
$GPGSA,A,3,01,02,03,04,05,06,07,08,09,10,11,12,1.0,1.0,1.0*30
$GPRMC,201817.768,A,4649.656,N,07117.974,W,009.7,086.1,210718,000.0,W*60
$GPGGA,201818.768,4649.656,N,07117.970,W,1,12,1.0,0.0,M,0.0,M,,*73
$GPGSA,A,3,01,02,03,04,05,06,07,08,09,10,11,12,1.0,1.0,1.0*30
$GPRMC,201818.768,A,4649.656,N,07117.970,W,009.7,086.1,210718,000.0,W*6B
$GPGGA,201819.768,4649.656,N,07117.966,W,1,12,1.0,0.0,M,0.0,M,,*75
$GPGSA,A,3,01,02,03,04,05,06,07,08,09,10,11,12,1.0,1.0,1.0*30
$GPRMC,201819.768,A,4649.656,N,07117.966,W,009.7,086.1,210718,000.0,W*6D
$GPGGA,201820.768,4649.657,N,07117.962,W,1,12,1.0,0.0,M,0.0,M,,*7A
$GPGSA,A,3,01,02,03,04,05,06,07,08,09,10,11,12,1.0,1.0,1.0*30
$GPRMC,201820.768,A,4649.657,N,07117.962,W,009.7,086.1,210718,000.0,W*62
$GPGGA,201821.768,4649.657,N,07117.958,W,1,12,1.0,0.0,M,0.0,M,,*72
$GPGSA,A,3,01,02,03,04,05,06,07,08,09,10,11,12,1.0,1.0,1.0*30
$GPRMC,201821.768,A,4649.657,N,07117.958,W,009.7,086.1,210718,000.0,W*6A
$GPGGA,201822.768,4649.657,N,07117.954,W,1,12,1.0,0.0,M,0.0,M,,*7D
$GPGSA,A,3,01,02,03,04,05,06,07,08,09,10,11,12,1.0,1.0,1.0*30
$GPRMC,201822.768,A,4649.657,N,07117.954,W,009.7,086.1,210718,000.0,W*65
$GPGGA,201823.768,4649.657,N,07117.950,W,1,12,1.0,0.0,M,0.0,M,,*78
$GPGSA,A,3,01,02,03,04,05,06,07,08,09,10,11,12,1.0,1.0,1.0*30
$GPRMC,201823.768,A,4649.657,N,07117.950,W,009.7,086.1,210718,000.0,W*60
$GPGGA,201824.768,4649.658,N,07117.946,W,1,12,1.0,0.0,M,0.0,M,,*77
$GPGSA,A,3,01,02,03,04,05,06,07,08,09,10,11,12,1.0,1.0,1.0*30
$GPRMC,201824.768,A,4649.658,N,07117.946,W,009.7,086.1,210718,000.0,W*6F
$GPGGA,201825.768,4649.658,N,07117.942,W,1,12,1.0,0.0,M,0.0,M,,*72
$GPGSA,A,3,01,02,03,04,05,06,07,08,09,10,11,12,1.0,1.0,1.0*30
$GPRMC,201825.768,A,4649.658,N,07117.942,W,009.7,086.1,210718,000.0,W*6A
$GPGGA,201826.768,4649.658,N,07117.938,W,1,12,1.0,0.0,M,0.0,M,,*7C
$GPGSA,A,3,01,02,03,04,05,06,07,08,09,10,11,12,1.0,1.0,1.0*30
$GPRMC,201826.768,A,4649.658,N,07117.938,W,009.7,086.1,210718,000.0,W*64
$GPGGA,201827.768,4649.658,N,07117.935,W,1,12,1.0,0.0,M,0.0,M,,*70
$GPGSA,A,3,01,02,03,04,05,06,07,08,09,10,11,12,1.0,1.0,1.0*30
$GPRMC,201827.768,A,4649.658,N,07117.935,W,009.7,086.1,210718,000.0,W*68
$GPGGA,201828.768,4649.659,N,07117.931,W,1,12,1.0,0.0,M,0.0,M,,*7A
$GPGSA,A,3,01,02,03,04,05,06,07,08,09,10,11,12,1.0,1.0,1.0*30
$GPRMC,201828.768,A,4649.659,N,07117.931,W,009.7,086.1,210718,000.0,W*62
$GPGGA,201829.768,4649.659,N,07117.927,W,1,12,1.0,0.0,M,0.0,M,,*7C
$GPGSA,A,3,01,02,03,04,05,06,07,08,09,10,11,12,1.0,1.0,1.0*30
$GPRMC,201829.768,A,4649.659,N,07117.927,W,009.7,086.1,210718,000.0,W*64
$GPGGA,201830.768,4649.659,N,07117.923,W,1,12,1.0,0.0,M,0.0,M,,*70
$GPGSA,A,3,01,02,03,04,05,06,07,08,09,10,11,12,1.0,1.0,1.0*30
$GPRMC,201830.768,A,4649.659,N,07117.923,W,009.7,086.1,210718,000.0,W*68
$GPGGA,201831.768,4649.659,N,07117.919,W,1,12,1.0,0.0,M,0.0,M,,*78
$GPGSA,A,3,01,02,03,04,05,06,07,08,09,10,11,12,1.0,1.0,1.0*30
$GPRMC,201831.768,A,4649.659,N,07117.919,W,009.7,086.1,210718,000.0,W*60
$GPGGA,201832.768,4649.660,N,07117.915,W,1,12,1.0,0.0,M,0.0,M,,*7D
$GPGSA,A,3,01,02,03,04,05,06,07,08,09,10,11,12,1.0,1.0,1.0*30
$GPRMC,201832.768,A,4649.660,N,07117.915,W,009.7,086.1,210718,000.0,W*65
$GPGGA,201833.768,4649.660,N,07117.911,W,1,12,1.0,0.0,M,0.0,M,,*78
$GPGSA,A,3,01,02,03,04,05,06,07,08,09,10,11,12,1.0,1.0,1.0*30
$GPRMC,201833.768,A,4649.660,N,07117.911,W,009.7,086.1,210718,000.0,W*60
$GPGGA,201834.768,4649.660,N,07117.907,W,1,12,1.0,0.0,M,0.0,M,,*78
$GPGSA,A,3,01,02,03,04,05,06,07,08,09,10,11,12,1.0,1.0,1.0*30
$GPRMC,201834.768,A,4649.660,N,07117.907,W,009.7,086.1,210718,000.0,W*60
$GPGGA,201835.768,4649.660,N,07117.903,W,1,12,1.0,0.0,M,0.0,M,,*7D
$GPGSA,A,3,01,02,03,04,05,06,07,08,09,10,11,12,1.0,1.0,1.0*30
$GPRMC,201835.768,A,4649.660,N,07117.903,W,009.7,086.1,210718,000.0,W*65
$GPGGA,201836.768,4649.661,N,07117.899,W,1,12,1.0,0.0,M,0.0,M,,*7D
$GPGSA,A,3,01,02,03,04,05,06,07,08,09,10,11,12,1.0,1.0,1.0*30
$GPRMC,201836.768,A,4649.661,N,07117.899,W,009.7,086.1,210718,000.0,W*65
$GPGGA,201837.768,4649.661,N,07117.895,W,1,12,1.0,0.0,M,0.0,M,,*70
$GPGSA,A,3,01,02,03,04,05,06,07,08,09,10,11,12,1.0,1.0,1.0*30
$GPRMC,201837.768,A,4649.661,N,07117.895,W,009.7,086.1,210718,000.0,W*68
$GPGGA,201838.768,4649.661,N,07117.891,W,1,12,1.0,0.0,M,0.0,M,,*7B
$GPGSA,A,3,01,02,03,04,05,06,07,08,09,10,11,12,1.0,1.0,1.0*30
$GPRMC,201838.768,A,4649.661,N,07117.891,W,009.7,086.1,210718,000.0,W*63
$GPGGA,201839.768,4649.662,N,07117.887,W,1,12,1.0,0.0,M,0.0,M,,*7E
$GPGSA,A,3,01,02,03,04,05,06,07,08,09,10,11,12,1.0,1.0,1.0*30
$GPRMC,201839.768,A,4649.662,N,07117.887,W,009.7,086.1,210718,000.0,W*66
$GPGGA,201840.768,4649.662,N,07117.884,W,1,12,1.0,0.0,M,0.0,M,,*73
$GPGSA,A,3,01,02,03,04,05,06,07,08,09,10,11,12,1.0,1.0,1.0*30
$GPRMC,201840.768,A,4649.662,N,07117.884,W,009.7,086.1,210718,000.0,W*6B
$GPGGA,201841.768,4649.662,N,07117.880,W,1,12,1.0,0.0,M,0.0,M,,*76
$GPGSA,A,3,01,02,03,04,05,06,07,08,09,10,11,12,1.0,1.0,1.0*30
$GPRMC,201841.768,A,4649.662,N,07117.880,W,009.7,080.1,210718,000.0,W*68
$GPGGA,201842.768,4649.663,N,07117.876,W,1,12,1.0,0.0,M,0.0,M,,*7D
$GPGSA,A,3,01,02,03,04,05,06,07,08,09,10,11,12,1.0,1.0,1.0*30
$GPRMC,201842.768,A,4649.663,N,07117.876,W,009.7,080.1,210718,000.0,W*63
$GPGGA,201843.768,4649.663,N,07117.872,W,1,12,1.0,0.0,M,0.0,M,,*78
$GPGSA,A,3,01,02,03,04,05,06,07,08,09,10,11,12,1.0,1.0,1.0*30
$GPRMC,201843.768,A,4649.663,N,07117.872,W,009.7,080.1,210718,000.0,W*66
$GPGGA,201844.768,4649.664,N,07117.868,W,1,12,1.0,0.0,M,0.0,M,,*73
$GPGSA,A,3,01,02,03,04,05,06,07,08,09,10,11,12,1.0,1.0,1.0*30
$GPRMC,201844.768,A,4649.664,N,07117.868,W,009.7,080.1,210718,000.0,W*6D
$GPGGA,201845.768,4649.665,N,07117.864,W,1,12,1.0,0.0,M,0.0,M,,*7F
$GPGSA,A,3,01,02,03,04,05,06,07,08,09,10,11,12,1.0,1.0,1.0*30
$GPRMC,201845.768,A,4649.665,N,07117.864,W,009.7,080.1,210718,000.0,W*61
$GPGGA,201846.768,4649.665,N,07117.861,W,1,12,1.0,0.0,M,0.0,M,,*79
$GPGSA,A,3,01,02,03,04,05,06,07,08,09,10,11,12,1.0,1.0,1.0*30
